biz_id,name,rating,review_count,url,image_url,latitude,longitude,city,state,address,zip_code
-rthw01Ytojy8qPebcSE3g,Chick-fil-A,4.5,7,https://www.yelp.com/biz/chick-fil-a-guntersville-2?adjust_creative=7QcreiNcfG2XG4IiEgZjvw&utm_campaign=yelp_api_v3&utm_medium=api_v3_business_search&utm_source=7QcreiNcfG2XG4IiEgZjvw,https://s3-media1.fl.yelpcdn.com/bphoto/-TnpxZqrf8syFHtb0kGMCA/o.jpg,34.302459,-86.278047,Guntersville,AL,11488 US Highway 431,35976
-6aFrV6Ae5zQN46cywYJ7Q,Popeyes Louisiana Kitchen,3.0,2,https://www.yelp.com/biz/popeyes-louisiana-kitchen-albertville?adjust_creative=7QcreiNcfG2XG4IiEgZjvw&utm_campaign=yelp_api_v3&utm_medium=api_v3_business_search&utm_source=7QcreiNcfG2XG4IiEgZjvw,https://s3-media1.fl.yelpcdn.com/bphoto/e-NEKiRhrJWX1986RVjJ5A/o.jpg,34.284878,-86.23099,Albertville,AL,8835 US Hwy 431,35951
vYgw_rMT5kH_BgbjlgJjLQ,Arby's,1.0,1,https://www.yelp.com/biz/arbys-albertville?adjust_creative=7QcreiNcfG2XG4IiEgZjvw&utm_campaign=yelp_api_v3&utm_medium=api_v3_business_search&utm_source=7QcreiNcfG2XG4IiEgZjvw,https://s3-media4.fl.yelpcdn.com/bphoto/GGCKCjFZmfTq77s8aXVevw/o.jpg,34.2775269,-86.2080917,Albertville,AL,7448 US Highway 431,35950
dwjQtXq-ckrl3pHrPBr8iw,Bojangles' Famous Chicken and Biscuits,3.0,2,https://www.yelp.com/biz/bojangles-famous-chicken-and-biscuits-albertville?adjust_creative=7QcreiNcfG2XG4IiEgZjvw&utm_campaign=yelp_api_v3&utm_medium=api_v3_business_search&utm_source=7QcreiNcfG2XG4IiEgZjvw,https://s3-media1.fl.yelpcdn.com/bphoto/AvXFLN4MUHRvDCLj9c-kSQ/o.jpg,34.2776985423514,-86.2081018106595,Albertville,AL,7398 US Hwy 431,35950
B1enU1uxxteV25FGjer2Ug,Hardee's,2.0,6,https://www.yelp.com/biz/hardees-albertville-2?adjust_creative=7QcreiNcfG2XG4IiEgZjvw&utm_campaign=yelp_api_v3&utm_medium=api_v3_business_search&utm_source=7QcreiNcfG2XG4IiEgZjvw,https://s3-media2.fl.yelpcdn.com/bphoto/5tS4RRYsJCyC-93dFXKNGQ/o.jpg,34.2979774475098,-86.2656555175781,Albertville,AL,11024 US Hwy 431,35950
JajwwbwcpIsglNxrLxcKmw,McDonald's,1.5,3,https://www.yelp.com/biz/mcdonalds-albertville?adjust_creative=7QcreiNcfG2XG4IiEgZjvw&utm_campaign=yelp_api_v3&utm_medium=api_v3_business_search&utm_source=7QcreiNcfG2XG4IiEgZjvw,https://s3-media4.fl.yelpcdn.com/bphoto/yYdV4PNMUsOphL8k-qKLzg/o.jpg,34.276571,-86.2077048,Albertville,AL,7375 Hwy 431,35950
DdyxlZDC3WcoggH507OwvA,Sonic Drive-In,2.5,4,https://www.yelp.com/biz/sonic-drive-in-albertville?adjust_creative=7QcreiNcfG2XG4IiEgZjvw&utm_campaign=yelp_api_v3&utm_medium=api_v3_business_search&utm_source=7QcreiNcfG2XG4IiEgZjvw,https://s3-media3.fl.yelpcdn.com/bphoto/putruV8uJfrVVSD4HDUoIg/o.jpg,34.281697,-86.222081,Albertville,AL,8269 US Hwy 431 N,35950
LcMEMZjE4sD3cGKVDj_7_Q,KFC,1.5,3,https://www.yelp.com/biz/kfc-albertville?adjust_creative=7QcreiNcfG2XG4IiEgZjvw&utm_campaign=yelp_api_v3&utm_medium=api_v3_business_search&utm_source=7QcreiNcfG2XG4IiEgZjvw,https://s3-media3.fl.yelpcdn.com/bphoto/Ctobbxp2uVGiPTp-AezK_Q/o.jpg,34.275964,-86.2061348398638,Albertville,AL,7285 US Hwy 431,35950
cEeKGywQ5Gtfmd38PaJIzQ,Burger King,1.0,2,https://www.yelp.com/biz/burger-king-albertville?adjust_creative=7QcreiNcfG2XG4IiEgZjvw&utm_campaign=yelp_api_v3&utm_medium=api_v3_business_search&utm_source=7QcreiNcfG2XG4IiEgZjvw,https://s3-media3.fl.yelpcdn.com/bphoto/JJ8rH--LAULZhiNdgQrakA/o.jpg,34.277187,-86.206162,Albertville,AL,7300 Hwy 431 North,35950
BUduRv5PAeJLA_T35ywddA,Taco Bell,1.0,3,https://www.yelp.com/biz/taco-bell-albertville?adjust_creative=7QcreiNcfG2XG4IiEgZjvw&utm_campaign=yelp_api_v3&utm_medium=api_v3_business_search&utm_source=7QcreiNcfG2XG4IiEgZjvw,https://s3-media1.fl.yelpcdn.com/bphoto/0UP4Qzka0Ap7TVYj95OfKA/o.jpg,34.2802,-86.2171,Albertville,AL,7959 US Highway 431,35950
3QBSMXRbZcaekIPK48gVYQ,Wendy's,1.0,1,https://www.yelp.com/biz/wendys-albertville?adjust_creative=7QcreiNcfG2XG4IiEgZjvw&utm_campaign=yelp_api_v3&utm_medium=api_v3_business_search&utm_source=7QcreiNcfG2XG4IiEgZjvw,https://s3-media1.fl.yelpcdn.com/bphoto/xjaVybutkp73bgu1-eg2mA/o.jpg,34.27963,-86.21645,Albertville,AL,7921 Us Highway 431,35950
entc6vrmPQ22z7nBoHAY0Q,Bubba Rito's,4.0,10,https://www.yelp.com/biz/bubba-ritos-guntersville-2?adjust_creative=7QcreiNcfG2XG4IiEgZjvw&utm_campaign=yelp_api_v3&utm_medium=api_v3_business_search&utm_source=7QcreiNcfG2XG4IiEgZjvw,https://s3-media4.fl.yelpcdn.com/bphoto/i4mxNpp7euT28AQomC_CTA/o.jpg,34.3057416,-86.2892722,Guntersville,AL,12500 US Hwy 431,35976
57e5oQXl18ww7tCzJjbLfQ,Wendy's,4.0,6,https://www.yelp.com/biz/wendys-guntersville?adjust_creative=7QcreiNcfG2XG4IiEgZjvw&utm_campaign=yelp_api_v3&utm_medium=api_v3_business_search&utm_source=7QcreiNcfG2XG4IiEgZjvw,https://s3-media2.fl.yelpcdn.com/bphoto/RPtEnesjf-d-6Zm_Qdil1g/o.jpg,34.3418464660645,-86.3077621459961,Guntersville,AL,1701 Gunter Ave,35976
-cgEFPucSf00NxX1kGvYFA,Captain D's,4.0,2,https://www.yelp.com/biz/captain-ds-guntersville?adjust_creative=7QcreiNcfG2XG4IiEgZjvw&utm_campaign=yelp_api_v3&utm_medium=api_v3_business_search&utm_source=7QcreiNcfG2XG4IiEgZjvw,https://s3-media2.fl.yelpcdn.com/bphoto/rNs_ExnV5H8bBUZrBIj1sg/o.jpg,34.2996016839161,-86.2701469659805,Guntersville,AL,11308 Hwy 431,35976
NFi9cQ6ZubXspb0rxiHFaQ,Zaxby's Chicken Fingers & Buffalo Wings,2.0,2,https://www.yelp.com/biz/zaxbys-chicken-fingers-and-buffalo-wings-guntersville?adjust_creative=7QcreiNcfG2XG4IiEgZjvw&utm_campaign=yelp_api_v3&utm_medium=api_v3_business_search&utm_source=7QcreiNcfG2XG4IiEgZjvw,https://s3-media3.fl.yelpcdn.com/bphoto/QL6UUXA7QNUxOGr5ysb5pQ/o.jpg,34.3008948404831,-86.2739575673068,Guntersville,AL,11456 US Highway 431,35976
o9mtONepiyUj5b0UD23yUg,Krystal,4.5,2,https://www.yelp.com/biz/krystal-boaz?adjust_creative=7QcreiNcfG2XG4IiEgZjvw&utm_campaign=yelp_api_v3&utm_medium=api_v3_business_search&utm_source=7QcreiNcfG2XG4IiEgZjvw,https://s3-media1.fl.yelpcdn.com/bphoto/bp9O10-f47H34gJ2MpUzlA/o.jpg,34.216,-86.157798,Boaz,AL,2115 Hwy 431,35957
XvD1wlABBXKJ2YFaVcVkRg,McDonald's,3.0,3,https://www.yelp.com/biz/mcdonalds-boaz?adjust_creative=7QcreiNcfG2XG4IiEgZjvw&utm_campaign=yelp_api_v3&utm_medium=api_v3_business_search&utm_source=7QcreiNcfG2XG4IiEgZjvw,https://s3-media2.fl.yelpcdn.com/bphoto/gildCl5_Xl3zLUCe_P61qw/o.jpg,34.1988951989994,-86.1511494219303,Boaz,AL,861 Hwy 431 S,35957
BI9pHWSDbdkikCqdnj_05w,Dairy Queen Grill & Chill,3.5,3,https://www.yelp.com/biz/dairy-queen-grill-and-chill-guntersville?adjust_creative=7QcreiNcfG2XG4IiEgZjvw&utm_campaign=yelp_api_v3&utm_medium=api_v3_business_search&utm_source=7QcreiNcfG2XG4IiEgZjvw,https://s3-media1.fl.yelpcdn.com/bphoto/bY3fBSN1WMaiWGusi_3h2Q/o.jpg,34.3239524822731,-86.313803,Guntersville,AL,14471 US Hwy 431 S,35976
5A1XEqILkUrQTehW-lZtTg,Zaxby's Chicken Fingers & Buffalo Wings,1.5,3,https://www.yelp.com/biz/zaxbys-chicken-fingers-and-buffalo-wings-boaz?adjust_creative=7QcreiNcfG2XG4IiEgZjvw&utm_campaign=yelp_api_v3&utm_medium=api_v3_business_search&utm_source=7QcreiNcfG2XG4IiEgZjvw,https://s3-media3.fl.yelpcdn.com/bphoto/qslsVCJiUwOyNeUOpuEWuA/o.jpg,34.21755,-86.15895,Boaz,AL,2221 US Highway 431,35957
MYlqX6AWaWOXVC8spxSYSA,Burger King,2.0,2,https://www.yelp.com/biz/burger-king-guntersville?adjust_creative=7QcreiNcfG2XG4IiEgZjvw&utm_campaign=yelp_api_v3&utm_medium=api_v3_business_search&utm_source=7QcreiNcfG2XG4IiEgZjvw,https://s3-media1.fl.yelpcdn.com/bphoto/s6kkv7jGPZ5QQhizalJ_8w/o.jpg,34.33861,-86.31131,Guntersville,AL,1929 Gunter Ave,35976
gd_-6BEwFLdaMQwhMLAE8g,Chick-fil-A,3.5,27,https://www.yelp.com/biz/chick-fil-a-athens?adjust_creative=7QcreiNcfG2XG4IiEgZjvw&utm_campaign=yelp_api_v3&utm_medium=api_v3_business_search&utm_source=7QcreiNcfG2XG4IiEgZjvw,https://s3-media4.fl.yelpcdn.com/bphoto/w4upKiMtyPl_5lp4CqW88Q/o.jpg,34.7850897,-86.9453931,Athens,AL,1291 US Hwy 72 E,35611
xFafxdb_CrrZf2t1EugVXg,Zaxby's Chicken Fingers & Buffalo Wings,4.0,18,https://www.yelp.com/biz/zaxbys-chicken-fingers-and-buffalo-wings-athens-10?adjust_creative=7QcreiNcfG2XG4IiEgZjvw&utm_campaign=yelp_api_v3&utm_medium=api_v3_business_search&utm_source=7QcreiNcfG2XG4IiEgZjvw,https://s3-media2.fl.yelpcdn.com/bphoto/IYuznl72T8tJanAyLWA2Hg/o.jpg,34.7959035,-86.9567965,Athens,AL,221 French Farms Blvd,35611
lHwdMWB7dCbxVKFX49Yb6A,Firehouse Subs,4.0,5,https://www.yelp.com/biz/firehouse-subs-athens-4?adjust_creative=7QcreiNcfG2XG4IiEgZjvw&utm_campaign=yelp_api_v3&utm_medium=api_v3_business_search&utm_source=7QcreiNcfG2XG4IiEgZjvw,https://s3-media2.fl.yelpcdn.com/bphoto/VFxCN7RV06rCT-E9kqTKng/o.jpg,34.78843,-86.962582,Athens,AL,935 Hwy 72E,35611
H8zsqRWQVz5Q_S1POW5wOg,McDonald's,3.0,4,https://www.yelp.com/biz/mcdonalds-athens-12?adjust_creative=7QcreiNcfG2XG4IiEgZjvw&utm_campaign=yelp_api_v3&utm_medium=api_v3_business_search&utm_source=7QcreiNcfG2XG4IiEgZjvw,https://s3-media2.fl.yelpcdn.com/bphoto/AYMytcvsTBPtKRsJen5FAw/o.jpg,34.8037014972466,-86.9518519146504,Athens,AL,103 Hwy 31 N,35611
gj0kegPHIbB6Go9fCGMEiQ,Burger King,3.0,2,https://www.yelp.com/biz/burger-king-athens-4?adjust_creative=7QcreiNcfG2XG4IiEgZjvw&utm_campaign=yelp_api_v3&utm_medium=api_v3_business_search&utm_source=7QcreiNcfG2XG4IiEgZjvw,https://s3-media1.fl.yelpcdn.com/bphoto/eGRiKeg9CQgx_f_6XU9hYw/o.jpg,34.7904775690365,-86.9712321261718,Athens,AL,1111 Se Jefferson,35611
EQ0exsxEXrZyFrIh6KVqAg,Bojangles' Famous Chicken and Biscuits,3.5,11,https://www.yelp.com/biz/bojangles-famous-chicken-and-biscuits-athens?adjust_creative=7QcreiNcfG2XG4IiEgZjvw&utm_campaign=yelp_api_v3&utm_medium=api_v3_business_search&utm_source=7QcreiNcfG2XG4IiEgZjvw,https://s3-media1.fl.yelpcdn.com/bphoto/eCEMJ8K3YnykCemQV5ovOQ/o.jpg,34.7838181344756,-86.9448613375425,Athens,AL,1316 US Highway 72 E,35611
b6jRqPMq9GKweVvPkxDBzw,KFC,3.5,3,https://www.yelp.com/biz/kfc-athens-8?adjust_creative=7QcreiNcfG2XG4IiEgZjvw&utm_campaign=yelp_api_v3&utm_medium=api_v3_business_search&utm_source=7QcreiNcfG2XG4IiEgZjvw,https://s3-media1.fl.yelpcdn.com/bphoto/8_HxTostdGHwHWwQpa2Eng/o.jpg,34.789513,-86.9718547,Athens,AL,205 US Hwy 72 W,35611
giATJbhcVrccCirbTu01Dw,Hardee's,2.0,12,https://www.yelp.com/biz/hardees-athens-2?adjust_creative=7QcreiNcfG2XG4IiEgZjvw&utm_campaign=yelp_api_v3&utm_medium=api_v3_business_search&utm_source=7QcreiNcfG2XG4IiEgZjvw,https://s3-media2.fl.yelpcdn.com/bphoto/ylSA5jS7H5XeO8a-KHz5pQ/o.jpg,34.7844299855478,-86.9427753372241,Athens,AL,1327 US Hwy 72 E,35611
nHBtqoWq75eDqbsHRg4-ng,Wendy's,2.5,3,https://www.yelp.com/biz/wendys-athens-6?adjust_creative=7QcreiNcfG2XG4IiEgZjvw&utm_campaign=yelp_api_v3&utm_medium=api_v3_business_search&utm_source=7QcreiNcfG2XG4IiEgZjvw,https://s3-media3.fl.yelpcdn.com/bphoto/CI97r25kf1NSfjNPof6NCQ/o.jpg,34.7825592611469,-86.9360409086676,Athens,AL,1603 Hwy 72 East,35611
oQmaNQw7hrgGM3-QMSsQ5w,Arby's,2.5,3,https://www.yelp.com/biz/arbys-athens-4?adjust_creative=7QcreiNcfG2XG4IiEgZjvw&utm_campaign=yelp_api_v3&utm_medium=api_v3_business_search&utm_source=7QcreiNcfG2XG4IiEgZjvw,https://s3-media2.fl.yelpcdn.com/bphoto/KJ2fHcqCqU-y_4GIuGMODg/o.jpg,34.79044,-86.976231,Athens,AL,600 US Hwy 72 W,35611
LOmY546xHc7r0ZG9xZamTQ,Burger King,2.0,3,https://www.yelp.com/biz/burger-king-athens-7?adjust_creative=7QcreiNcfG2XG4IiEgZjvw&utm_campaign=yelp_api_v3&utm_medium=api_v3_business_search&utm_source=7QcreiNcfG2XG4IiEgZjvw,https://s3-media1.fl.yelpcdn.com/bphoto/Mvfp_wfZXBw8WNioMg2tMQ/o.jpg,34.7817867,-86.9358143,Athens,AL,1600 Hwy 72 East,35611
km25cUfRn-T2KMtMtENc8Q,Popeyes Louisiana Kitchen,2.0,6,https://www.yelp.com/biz/popeyes-louisiana-kitchen-athens-3?adjust_creative=7QcreiNcfG2XG4IiEgZjvw&utm_campaign=yelp_api_v3&utm_medium=api_v3_business_search&utm_source=7QcreiNcfG2XG4IiEgZjvw,https://s3-media2.fl.yelpcdn.com/bphoto/kQsFYwwYyLXGgXVCE3tLpg/o.jpg,34.790525,-86.974883,Athens,AL,550 US Hwy 72 W,35611
I6afg1BJr0QAf5JKKJ2lLA,Taco Bell,1.5,4,https://www.yelp.com/biz/taco-bell-athens-4?adjust_creative=7QcreiNcfG2XG4IiEgZjvw&utm_campaign=yelp_api_v3&utm_medium=api_v3_business_search&utm_source=7QcreiNcfG2XG4IiEgZjvw,https://s3-media4.fl.yelpcdn.com/bphoto/0EQWAdFtDTtc3D0vcOVM7A/o.jpg,34.7901722876183,-86.97224494585,Athens,AL,1112 Jefferson St SE,35611
Yn1rtEEONk_gOrNfLIviEw,Captain D's,1.5,3,https://www.yelp.com/biz/captain-ds-athens-3?adjust_creative=7QcreiNcfG2XG4IiEgZjvw&utm_campaign=yelp_api_v3&utm_medium=api_v3_business_search&utm_source=7QcreiNcfG2XG4IiEgZjvw,https://s3-media3.fl.yelpcdn.com/bphoto/k3eGZ2d28G6Joy6wrTa5hg/o.jpg,34.8004056008845,-86.9532117247581,Athens,AL,102 Hwy 31 S,35611
LUCj9sYaqQJxEbaHX_p4TA,Hardee's,2.0,3,https://www.yelp.com/biz/hardees-athens-3?adjust_creative=7QcreiNcfG2XG4IiEgZjvw&utm_campaign=yelp_api_v3&utm_medium=api_v3_business_search&utm_source=7QcreiNcfG2XG4IiEgZjvw,https://s3-media3.fl.yelpcdn.com/bphoto/rjskLlTV2lPfznL3zn9ZkQ/o.jpg,34.79082,-86.97168,Athens,AL,1110 S Jefferson St,35611
4Une4CYn-_BtXrUDAOQfcw,McDonald's,1.0,18,https://www.yelp.com/biz/mcdonalds-athens-3?adjust_creative=7QcreiNcfG2XG4IiEgZjvw&utm_campaign=yelp_api_v3&utm_medium=api_v3_business_search&utm_source=7QcreiNcfG2XG4IiEgZjvw,https://s3-media3.fl.yelpcdn.com/bphoto/a-oXpqMSclWdPtaZ6fVbIg/o.jpg,34.7828345221278,-86.9370473921299,Athens,AL,1529 Hwy 72 E,35611
KgMk5kScbj81tn-gE7BGIQ,Krystal,3.5,3,https://www.yelp.com/biz/krystal-athens-4?adjust_creative=7QcreiNcfG2XG4IiEgZjvw&utm_campaign=yelp_api_v3&utm_medium=api_v3_business_search&utm_source=7QcreiNcfG2XG4IiEgZjvw,https://s3-media2.fl.yelpcdn.com/bphoto/lb737Xh591fKL71PzXdzwQ/o.jpg,34.7828862973196,-86.9414844363928,Athens,AL,1412 US Highway 72 E,35611
FDymvt9OrMedcS-A_1vSBA,Sonic Drive-In,1.0,8,https://www.yelp.com/biz/sonic-drive-in-athens-2?adjust_creative=7QcreiNcfG2XG4IiEgZjvw&utm_campaign=yelp_api_v3&utm_medium=api_v3_business_search&utm_source=7QcreiNcfG2XG4IiEgZjvw,https://s3-media2.fl.yelpcdn.com/bphoto/mwLopIcwG6DBMRpKHZ4xvQ/o.jpg,34.7875014819212,-86.962447488579,Athens,AL,914 Hwy 72 E,35611
VNmRGjEVSCi59Z_y_R59wg,Punta Cana Caribbean Restaurant,4.5,5,https://www.yelp.com/biz/punta-cana-caribbean-restaurant-madison?adjust_creative=7QcreiNcfG2XG4IiEgZjvw&utm_campaign=yelp_api_v3&utm_medium=api_v3_business_search&utm_source=7QcreiNcfG2XG4IiEgZjvw,https://s3-media2.fl.yelpcdn.com/bphoto/EkxqhJzHMHw5KPbX1tAllw/o.jpg,34.738888,-86.786691,Madison,AL,30098 Andrea Ln,35756
MJU8hpo5OTYZlXPn2hXtcA,Zaxby's Chicken Fingers & Buffalo Wings,3.5,9,https://www.yelp.com/biz/zaxbys-chicken-fingers-and-buffalo-wings-madison?adjust_creative=7QcreiNcfG2XG4IiEgZjvw&utm_campaign=yelp_api_v3&utm_medium=api_v3_business_search&utm_source=7QcreiNcfG2XG4IiEgZjvw,https://s3-media4.fl.yelpcdn.com/bphoto/i1E7kJ0Fi1JM38EihaFXCA/o.jpg,34.6788459151322,-86.7525881901383,Madison,AL,100 Ivory Pl,35758
EOrml39M2sb9G2SbieWnVg,Chick-fil-A,4.0,6,https://www.yelp.com/biz/chick-fil-a-birmingham-28?adjust_creative=7QcreiNcfG2XG4IiEgZjvw&utm_campaign=yelp_api_v3&utm_medium=api_v3_business_search&utm_source=7QcreiNcfG2XG4IiEgZjvw,https://s3-media4.fl.yelpcdn.com/bphoto/SWWCJAjWyn9HOYCtypB-Ww/o.jpg,33.4703222,-86.7707532,Birmingham,AL,746 Brookwood Vlg,35209
aCLcJLOtEuimvcyNGlWvjg,Chick-fil-A,2.0,9,https://www.yelp.com/biz/chick-fil-a-birmingham-9?adjust_creative=7QcreiNcfG2XG4IiEgZjvw&utm_campaign=yelp_api_v3&utm_medium=api_v3_business_search&utm_source=7QcreiNcfG2XG4IiEgZjvw,https://s3-media3.fl.yelpcdn.com/bphoto/OQ0ESg2x1FPrPJuS1pP2Dw/o.jpg,33.4652043,-86.7930679,Birmingham,AL,800 Lakeshore Dr,35229
BODVG1cFXTfytMGq12inSQ,Chick-fil-A,2.5,39,https://www.yelp.com/biz/chick-fil-a-vestavia-hills-3?adjust_creative=7QcreiNcfG2XG4IiEgZjvw&utm_campaign=yelp_api_v3&utm_medium=api_v3_business_search&utm_source=7QcreiNcfG2XG4IiEgZjvw,https://s3-media1.fl.yelpcdn.com/bphoto/oXkYuop_wEMtq54p7iKuVw/o.jpg,33.4503304,-86.7876884,Vestavia Hills,AL,513 Montgomery Hwy,35216
SE_XcXDUDr88YyGvi3yUPA,Chick-fil-A,3.0,77,https://www.yelp.com/biz/chick-fil-a-birmingham-3?adjust_creative=7QcreiNcfG2XG4IiEgZjvw&utm_campaign=yelp_api_v3&utm_medium=api_v3_business_search&utm_source=7QcreiNcfG2XG4IiEgZjvw,https://s3-media3.fl.yelpcdn.com/bphoto/LcOgEhTVnBbZfyR2e8z6Mw/o.jpg,33.499909,-86.7954887,Birmingham,AL,2000 Highland Ave S,35205
MMQLZPtPcYm9NKlAfIYj9A,Chick-fil-A,3.0,52,https://www.yelp.com/biz/chick-fil-a-homewood?adjust_creative=7QcreiNcfG2XG4IiEgZjvw&utm_campaign=yelp_api_v3&utm_medium=api_v3_business_search&utm_source=7QcreiNcfG2XG4IiEgZjvw,https://s3-media1.fl.yelpcdn.com/bphoto/1RAZCY_Cqm60TlGU-KHyqA/o.jpg,33.446895,-86.82348186,Homewood,AL,211 Lakeshore Pkwy,35209
cuElGlfeHjAPKQ2EyJ2BCA,Chick-fil-A,4.0,13,https://www.yelp.com/biz/chick-fil-a-birmingham-14?adjust_creative=7QcreiNcfG2XG4IiEgZjvw&utm_campaign=yelp_api_v3&utm_medium=api_v3_business_search&utm_source=7QcreiNcfG2XG4IiEgZjvw,https://s3-media3.fl.yelpcdn.com/bphoto/ksskexQbE16zwwdl6XC9-Q/o.jpg,33.5175026,-86.808928,Birmingham,AL,1913 5th Ave N,35203
qbs6vWXobXBAhI8FUQJHwQ,Chick-fil-A,3.5,46,https://www.yelp.com/biz/chick-fil-a-irondale?adjust_creative=7QcreiNcfG2XG4IiEgZjvw&utm_campaign=yelp_api_v3&utm_medium=api_v3_business_search&utm_source=7QcreiNcfG2XG4IiEgZjvw,https://s3-media3.fl.yelpcdn.com/bphoto/zJftZQH_2ol4Q2vXRx3UlA/o.jpg,33.52655,-86.7206,Irondale,AL,1648 Montclair Rd,35210
WDy57YiUsC74wsajFWelsw,Chick-fil-A,3.5,44,https://www.yelp.com/biz/chick-fil-a-birmingham-7?adjust_creative=7QcreiNcfG2XG4IiEgZjvw&utm_campaign=yelp_api_v3&utm_medium=api_v3_business_search&utm_source=7QcreiNcfG2XG4IiEgZjvw,https://s3-media3.fl.yelpcdn.com/bphoto/_BsijZsXG6DdzEuNOLBXBA/o.jpg,33.427832,-86.7081766,Birmingham,AL,4620 US 280 S,35242
q_Kr7WMYQte25PijgHkqOg,Chick-fil-A,3.5,34,https://www.yelp.com/biz/chick-fil-a-hoover-7?adjust_creative=7QcreiNcfG2XG4IiEgZjvw&utm_campaign=yelp_api_v3&utm_medium=api_v3_business_search&utm_source=7QcreiNcfG2XG4IiEgZjvw,https://s3-media1.fl.yelpcdn.com/bphoto/TpB6xuT9QBbo3sZZkKYDDw/o.jpg,33.3990767,-86.8054123,Hoover,AL,1609 Montgomery Hwy,35216
3vLHQQ0cR8_yA2t2QGGxVA,Chick-fil-A,2.0,31,https://www.yelp.com/biz/chick-fil-a-birmingham-8?adjust_creative=7QcreiNcfG2XG4IiEgZjvw&utm_campaign=yelp_api_v3&utm_medium=api_v3_business_search&utm_source=7QcreiNcfG2XG4IiEgZjvw,https://s3-media4.fl.yelpcdn.com/bphoto/TQz_KOoOyRYHeMctQfYStQ/o.jpg,33.5627779,-86.7511699,Birmingham,AL,5900 Messer Airport Hwy,35212
KYYiQK1N4eRdgHQZsHMJBA,Chick-fil-A,4.0,12,https://www.yelp.com/biz/chick-fil-a-hoover-6?adjust_creative=7QcreiNcfG2XG4IiEgZjvw&utm_campaign=yelp_api_v3&utm_medium=api_v3_business_search&utm_source=7QcreiNcfG2XG4IiEgZjvw,https://s3-media1.fl.yelpcdn.com/bphoto/ZxJW1iqYkDjvz7MtoKxjsg/o.jpg,33.3795836,-86.8088487,Hoover,AL,2000 Riverchase Galleria,35244
rM5RyQuJZXxm9nfkQ0HKfQ,Chick-fil-A,3.5,27,https://www.yelp.com/biz/chick-fil-a-birmingham-23?adjust_creative=7QcreiNcfG2XG4IiEgZjvw&utm_campaign=yelp_api_v3&utm_medium=api_v3_business_search&utm_source=7QcreiNcfG2XG4IiEgZjvw,https://s3-media2.fl.yelpcdn.com/bphoto/k8a_atJt1DGh3wG3a-8U6A/o.jpg,33.419683,-86.672523,Birmingham,AL,5375 Hwy 280,35242
JCgg-t2keRGqEy7oz0d-Eg,Chick-fil-A,4.0,33,https://www.yelp.com/biz/chick-fil-a-hoover-2?adjust_creative=7QcreiNcfG2XG4IiEgZjvw&utm_campaign=yelp_api_v3&utm_medium=api_v3_business_search&utm_source=7QcreiNcfG2XG4IiEgZjvw,https://s3-media3.fl.yelpcdn.com/bphoto/CWdjbo1zsQ2dz7iw_5T-lA/o.jpg,33.371688,-86.812792,Hoover,AL,3020 John Hawkins Pkwy,35244
HdNx8lA63c_Frl4CIjpgVQ,Chick-fil-A,4.0,30,https://www.yelp.com/biz/chick-fil-a-hoover-4?adjust_creative=7QcreiNcfG2XG4IiEgZjvw&utm_campaign=yelp_api_v3&utm_medium=api_v3_business_search&utm_source=7QcreiNcfG2XG4IiEgZjvw,https://s3-media1.fl.yelpcdn.com/bphoto/8X7aYu-i5KQFeYBiv6Egng/o.jpg,33.3583326,-86.854491,Hoover,AL,5658 Grove Blvd,35226
MaqJgznhZ0Y0xldk6mhx9g,Chick-fil-A,4.5,29,https://www.yelp.com/biz/chick-fil-a-birmingham-13?adjust_creative=7QcreiNcfG2XG4IiEgZjvw&utm_campaign=yelp_api_v3&utm_medium=api_v3_business_search&utm_source=7QcreiNcfG2XG4IiEgZjvw,https://s3-media1.fl.yelpcdn.com/bphoto/16hEefhWNH4uF-83g-w-1w/o.jpg,33.590725,-86.6962491,Birmingham,AL,9345 Pkwy E,35215
u1kgXj9E34HMeJ0YiJaaBA,Chick-fil-A,3.5,23,https://www.yelp.com/biz/chick-fil-a-fultondale?adjust_creative=7QcreiNcfG2XG4IiEgZjvw&utm_campaign=yelp_api_v3&utm_medium=api_v3_business_search&utm_source=7QcreiNcfG2XG4IiEgZjvw,https://s3-media1.fl.yelpcdn.com/bphoto/7c0bkpqFER_9pQa8IHEBlg/o.jpg,33.6076806,-86.806613,Fultondale,AL,215 Howell St,35068
8EO7FUKYFC8BLWd17UNuiA,Chick-fil-A,3.5,13,https://www.yelp.com/biz/chick-fil-a-pelham?adjust_creative=7QcreiNcfG2XG4IiEgZjvw&utm_campaign=yelp_api_v3&utm_medium=api_v3_business_search&utm_source=7QcreiNcfG2XG4IiEgZjvw,https://s3-media1.fl.yelpcdn.com/bphoto/Hjf0G1goMvO6w2kS4WSmWw/o.jpg,33.3333164,-86.7856908,Pelham,AL,320 Cahaba Valley Rd,35124
peqCnxUlHCSrHTPWnBVqMQ,Chick-fil-A,3.5,14,https://www.yelp.com/biz/chick-fil-a-gardendale?adjust_creative=7QcreiNcfG2XG4IiEgZjvw&utm_campaign=yelp_api_v3&utm_medium=api_v3_business_search&utm_source=7QcreiNcfG2XG4IiEgZjvw,https://s3-media4.fl.yelpcdn.com/bphoto/GcQylCBJDCsQw8ulYiRQBQ/o.jpg,33.651342,-86.8156701,Gardendale,AL,385 Fieldstown Rd,35071
ctJwxUgLH7bvIeoWUajayw,Chick-fil-A,4.5,32,https://www.yelp.com/biz/chick-fil-a-birmingham?adjust_creative=7QcreiNcfG2XG4IiEgZjvw&utm_campaign=yelp_api_v3&utm_medium=api_v3_business_search&utm_source=7QcreiNcfG2XG4IiEgZjvw,https://s3-media2.fl.yelpcdn.com/bphoto/kIVNpHzVNwzkYMbYjoTewQ/o.jpg,33.6417588,-86.626128,Birmingham,AL,5886 Trussville Crossings Pkwy,35235
tBYi-Rj8OuNiXxDryeLU4A,Chick-fil-A,3.5,27,https://www.yelp.com/biz/chick-fil-a-leeds?adjust_creative=7QcreiNcfG2XG4IiEgZjvw&utm_campaign=yelp_api_v3&utm_medium=api_v3_business_search&utm_source=7QcreiNcfG2XG4IiEgZjvw,https://s3-media1.fl.yelpcdn.com/bphoto/WtdamOTiNb763CSLZtsMeQ/o.jpg,33.5615137,-86.5231157,Leeds,AL,1808 Ashville Rd,35094
NLnHQA0WZb5uQ3WG3P_2BA,Chick-fil-A,4.0,18,https://www.yelp.com/biz/chick-fil-a-calera-3?adjust_creative=7QcreiNcfG2XG4IiEgZjvw&utm_campaign=yelp_api_v3&utm_medium=api_v3_business_search&utm_source=7QcreiNcfG2XG4IiEgZjvw,https://s3-media1.fl.yelpcdn.com/bphoto/dVclKjDjsftmYZNYBvQFow/o.jpg,33.1462545,-86.7477608,Calera,AL,64 Highway 304,35040
wCT0c_dzAM61PoJBH63W2Q,Zaxby's Chicken Fingers & Buffalo Wings,4.5,9,https://www.yelp.com/biz/zaxbys-chicken-fingers-and-buffalo-wings-calera?adjust_creative=7QcreiNcfG2XG4IiEgZjvw&utm_campaign=yelp_api_v3&utm_medium=api_v3_business_search&utm_source=7QcreiNcfG2XG4IiEgZjvw,https://s3-media2.fl.yelpcdn.com/bphoto/6JmXiFickTNZJT16ABlJcA/o.jpg,33.1468353,-86.7464554,Calera,AL,102 Limestone Pkwy,35040
nsCQTDXCarQtKZLUf-CMMw,Milo's Hamburgers,3.5,26,https://www.yelp.com/biz/milos-hamburgers-calera?adjust_creative=7QcreiNcfG2XG4IiEgZjvw&utm_campaign=yelp_api_v3&utm_medium=api_v3_business_search&utm_source=7QcreiNcfG2XG4IiEgZjvw,https://s3-media3.fl.yelpcdn.com/bphoto/fPc-X4REVhVh6CRamOM1KQ/o.jpg,33.147007011099,-86.748527544095,Calera,AL,1 Limestone Pkwy,35040
9jOYla0r6OTQOj3_ejh9pw,Sonic Drive-In,2.5,2,https://www.yelp.com/biz/sonic-drive-in-calera-2?adjust_creative=7QcreiNcfG2XG4IiEgZjvw&utm_campaign=yelp_api_v3&utm_medium=api_v3_business_search&utm_source=7QcreiNcfG2XG4IiEgZjvw,https://s3-media4.fl.yelpcdn.com/bphoto/0h9h_2OhsOYtlTR0AE4rSw/o.jpg,33.145553,-86.7481631,Calera,AL,124 Highway 304,35040
aDCWhxmZljdvy3GAph7DrQ,Captain D's,3.0,6,https://www.yelp.com/biz/captain-ds-calera?adjust_creative=7QcreiNcfG2XG4IiEgZjvw&utm_campaign=yelp_api_v3&utm_medium=api_v3_business_search&utm_source=7QcreiNcfG2XG4IiEgZjvw,https://s3-media1.fl.yelpcdn.com/bphoto/tPMhbWhTVfoqsSAq0RF3cA/o.jpg,33.1464740022254,-86.7495730519295,Calera,AL,101 Super Center Dr,35040
ILq0mOBRRnmWt_e2wvqbWQ,Bojangles,3.5,21,https://www.yelp.com/biz/bojangles-calera-2?adjust_creative=7QcreiNcfG2XG4IiEgZjvw&utm_campaign=yelp_api_v3&utm_medium=api_v3_business_search&utm_source=7QcreiNcfG2XG4IiEgZjvw,https://s3-media2.fl.yelpcdn.com/bphoto/oPaUJpOYhNWoYhj9JBV5lA/o.jpg,33.1482725590467,-86.7493658512831,Calera,AL,5070 Hwy 31,35040
y3EQXM_dmkBct7N84jQqMQ,McDonald's,2.0,21,https://www.yelp.com/biz/mcdonalds-calera-2?adjust_creative=7QcreiNcfG2XG4IiEgZjvw&utm_campaign=yelp_api_v3&utm_medium=api_v3_business_search&utm_source=7QcreiNcfG2XG4IiEgZjvw,https://s3-media4.fl.yelpcdn.com/bphoto/LHDtqyeZp9Y-2eRR-jW-3g/o.jpg,33.1472532732695,-86.7496427893639,Calera,AL,706 Supercenter Dr,35040
ys20PvZDABxM-Zqj5kpXzA,Bojangles,5.0,1,https://www.yelp.com/biz/bojangles-calera-3?adjust_creative=7QcreiNcfG2XG4IiEgZjvw&utm_campaign=yelp_api_v3&utm_medium=api_v3_business_search&utm_source=7QcreiNcfG2XG4IiEgZjvw,,33.1031914,-86.7521973,Calera,AL,2028 Martin St,35040
zgTpUgA4kJb5Fob9CxsV6A,Hardee's,2.0,10,https://www.yelp.com/biz/hardees-calera?adjust_creative=7QcreiNcfG2XG4IiEgZjvw&utm_campaign=yelp_api_v3&utm_medium=api_v3_business_search&utm_source=7QcreiNcfG2XG4IiEgZjvw,https://s3-media4.fl.yelpcdn.com/bphoto/CGHhsdMfSEJ_MNCfPUwH2Q/o.jpg,33.10027,-86.75257,Calera,AL,8441 Hwy 31 S,35040
C34MF_HiXBtRu_wPVWYXBA,Taco Bell,1.5,8,https://www.yelp.com/biz/taco-bell-calera?adjust_creative=7QcreiNcfG2XG4IiEgZjvw&utm_campaign=yelp_api_v3&utm_medium=api_v3_business_search&utm_source=7QcreiNcfG2XG4IiEgZjvw,https://s3-media3.fl.yelpcdn.com/bphoto/CYHd2RfMmE5y1au7jaWohA/o.jpg,33.1460632865923,-86.7494781938395,Calera,AL,121 Supercenter Dr,35040
dxLSrmyd7EzUMagjShUQxQ,Burger King,1.0,1,https://www.yelp.com/biz/burger-king-calera-3?adjust_creative=7QcreiNcfG2XG4IiEgZjvw&utm_campaign=yelp_api_v3&utm_medium=api_v3_business_search&utm_source=7QcreiNcfG2XG4IiEgZjvw,https://s3-media2.fl.yelpcdn.com/bphoto/D_Qld4U3q7qy2y-j9PWlXg/o.jpg,33.1483862823768,-86.7496031717074,Calera,AL,5076 Hwy 31,35040
uQ7RW_f7N_WmozcDocs-gQ,Zaxby's Chicken Fingers & Buffalo Wings,2.5,10,https://www.yelp.com/biz/zaxbys-chicken-fingers-and-buffalo-wings-alabaster?adjust_creative=7QcreiNcfG2XG4IiEgZjvw&utm_campaign=yelp_api_v3&utm_medium=api_v3_business_search&utm_source=7QcreiNcfG2XG4IiEgZjvw,https://s3-media4.fl.yelpcdn.com/bphoto/6qfFIFJ8pc7iGCnRcUWTHw/o.jpg,33.2127481,-86.8278764,Alabaster,AL,9134 Highway 119,35007
CzDMTh-gIpIvTi3JBaJGjw,Kathy G & Co,2.5,3,https://www.yelp.com/biz/kathy-g-and-co-birmingham?adjust_creative=7QcreiNcfG2XG4IiEgZjvw&utm_campaign=yelp_api_v3&utm_medium=api_v3_business_search&utm_source=7QcreiNcfG2XG4IiEgZjvw,https://s3-media2.fl.yelpcdn.com/bphoto/0kvU63pH1FLks3GL7umGxA/o.jpg,33.45946,-86.8434,Birmingham,AL,11 W Park Cir,35211
9Cl3iAfVKVW9qg99BOH4pg,The Carter Event Center,4.0,1,https://www.yelp.com/biz/the-carter-event-center-alabaster?adjust_creative=7QcreiNcfG2XG4IiEgZjvw&utm_campaign=yelp_api_v3&utm_medium=api_v3_business_search&utm_source=7QcreiNcfG2XG4IiEgZjvw,https://s3-media1.fl.yelpcdn.com/bphoto/NOcV_pm87bQ_ZT1wmfwetw/o.jpg,33.2112394,-86.7854123,Alabaster,AL,844 Hwy 31 S,35007
NJLOLTZDsJk8MHVrSeIggA,All Around Town Catering,2.5,4,https://www.yelp.com/biz/all-around-town-catering-birmingham?adjust_creative=7QcreiNcfG2XG4IiEgZjvw&utm_campaign=yelp_api_v3&utm_medium=api_v3_business_search&utm_source=7QcreiNcfG2XG4IiEgZjvw,,33.4043054,-86.8053219,Birmingham,AL,1561 Montgomery Hwy,35216
_3qcCzo6BqUZFeJOqAjAXA,Catered To You Events,5.0,1,https://www.yelp.com/biz/catered-to-you-events-birmingham?adjust_creative=7QcreiNcfG2XG4IiEgZjvw&utm_campaign=yelp_api_v3&utm_medium=api_v3_business_search&utm_source=7QcreiNcfG2XG4IiEgZjvw,https://s3-media2.fl.yelpcdn.com/bphoto/St5c4-2bacRKeyNyUshLrw/o.jpg,33.514714,-86.797411,Birmingham,AL,2443 1st Ave S,35210
rM5RyQuJZXxm9nfkQ0HKfQ,Chick-fil-A,3.5,27,https://www.yelp.com/biz/chick-fil-a-birmingham-23?adjust_creative=7QcreiNcfG2XG4IiEgZjvw&utm_campaign=yelp_api_v3&utm_medium=api_v3_business_search&utm_source=7QcreiNcfG2XG4IiEgZjvw,https://s3-media2.fl.yelpcdn.com/bphoto/k8a_atJt1DGh3wG3a-8U6A/o.jpg,33.419683,-86.672523,Birmingham,AL,5375 Hwy 280,35242
WDy57YiUsC74wsajFWelsw,Chick-fil-A,3.5,44,https://www.yelp.com/biz/chick-fil-a-birmingham-7?adjust_creative=7QcreiNcfG2XG4IiEgZjvw&utm_campaign=yelp_api_v3&utm_medium=api_v3_business_search&utm_source=7QcreiNcfG2XG4IiEgZjvw,https://s3-media3.fl.yelpcdn.com/bphoto/_BsijZsXG6DdzEuNOLBXBA/o.jpg,33.427832,-86.7081766,Birmingham,AL,4620 US 280 S,35242
PxQ1HHQun63rBBbVVL7KFQ,Dairy Queen Grill & Chill,4.0,5,https://www.yelp.com/biz/dairy-queen-grill-and-chill-chelsea?adjust_creative=7QcreiNcfG2XG4IiEgZjvw&utm_campaign=yelp_api_v3&utm_medium=api_v3_business_search&utm_source=7QcreiNcfG2XG4IiEgZjvw,https://s3-media2.fl.yelpcdn.com/bphoto/ChVdWL3k0ukSTs7JvQSzpw/o.jpg,33.3472346094221,-86.633867919445,Chelsea,AL,16857 Hwy 280,35043
7TlIEgZnc3P3zSwl_jaMng,McDonald's,2.0,14,https://www.yelp.com/biz/mcdonalds-chelsea-5?adjust_creative=7QcreiNcfG2XG4IiEgZjvw&utm_campaign=yelp_api_v3&utm_medium=api_v3_business_search&utm_source=7QcreiNcfG2XG4IiEgZjvw,https://s3-media2.fl.yelpcdn.com/bphoto/6RS80iqYU73q5ku3bpM49Q/o.jpg,33.3488825516489,-86.6322599351406,Chelsea,AL,16758 US Hwy 280,35043
2mtLS80j7kezn62RZJG2iA,Taco Bell,3.0,10,https://www.yelp.com/biz/taco-bell-chelsea-5?adjust_creative=7QcreiNcfG2XG4IiEgZjvw&utm_campaign=yelp_api_v3&utm_medium=api_v3_business_search&utm_source=7QcreiNcfG2XG4IiEgZjvw,https://s3-media4.fl.yelpcdn.com/bphoto/RQQ5KQLkRcBL7JWhziwCfQ/o.jpg,33.350862,-86.595844,Chelsea,AL,16778 Hwy. 280,35043
wYiDu5uSE3THy9HSELrnlA,Wendy's,2.5,5,https://www.yelp.com/biz/wendys-chelsea-2?adjust_creative=7QcreiNcfG2XG4IiEgZjvw&utm_campaign=yelp_api_v3&utm_medium=api_v3_business_search&utm_source=7QcreiNcfG2XG4IiEgZjvw,https://s3-media4.fl.yelpcdn.com/bphoto/4p-OMgalyn9sMh8_3S0TSg/o.jpg,33.3504163354787,-86.6176639475841,Chelsea,AL,16056 Hwy 280,35043
igOp77UpPy0sSR4Y2CFACQ,Burger King,2.0,9,https://www.yelp.com/biz/burger-king-chelsea-2?adjust_creative=7QcreiNcfG2XG4IiEgZjvw&utm_campaign=yelp_api_v3&utm_medium=api_v3_business_search&utm_source=7QcreiNcfG2XG4IiEgZjvw,https://s3-media4.fl.yelpcdn.com/bphoto/5AZZSjMxwFQjb8WH98tuUA/o.jpg,33.351636,-86.612498,Chelsea,AL,15622 Hwy 280,35043
cR2G5TN9sCqyW9gdXHbeJw,Sonic Drive-In,2.0,7,https://www.yelp.com/biz/sonic-drive-in-chelsea?adjust_creative=7QcreiNcfG2XG4IiEgZjvw&utm_campaign=yelp_api_v3&utm_medium=api_v3_business_search&utm_source=7QcreiNcfG2XG4IiEgZjvw,https://s3-media3.fl.yelpcdn.com/bphoto/djn4kJf--Xu-7nyRjtrBwQ/o.jpg,33.3505427854901,-86.6214895248413,Chelsea,AL,64 Chelsea Pointe Dr,35043
CzDMTh-gIpIvTi3JBaJGjw,Kathy G & Co,2.5,3,https://www.yelp.com/biz/kathy-g-and-co-birmingham?adjust_creative=7QcreiNcfG2XG4IiEgZjvw&utm_campaign=yelp_api_v3&utm_medium=api_v3_business_search&utm_source=7QcreiNcfG2XG4IiEgZjvw,https://s3-media2.fl.yelpcdn.com/bphoto/0kvU63pH1FLks3GL7umGxA/o.jpg,33.45946,-86.8434,Birmingham,AL,11 W Park Cir,35211
kFPb45VXvda41J_0Uzf7bg,Crestline Catering Company,5.0,1,https://www.yelp.com/biz/crestline-catering-company-birmingham?adjust_creative=7QcreiNcfG2XG4IiEgZjvw&utm_campaign=yelp_api_v3&utm_medium=api_v3_business_search&utm_source=7QcreiNcfG2XG4IiEgZjvw,https://s3-media2.fl.yelpcdn.com/bphoto/XW_7JTdWEa1QABmg7tRA8Q/o.jpg,33.4339088,-86.8118105,Birmingham,AL,2120 Columbiana Rd,35216
_VFh0GXw0nwj8GNTIvLiCA,Eugene's Hot Chicken,4.5,271,https://www.yelp.com/biz/eugenes-hot-chicken-birmingham-3?adjust_creative=7QcreiNcfG2XG4IiEgZjvw&utm_campaign=yelp_api_v3&utm_medium=api_v3_business_search&utm_source=7QcreiNcfG2XG4IiEgZjvw,https://s3-media1.fl.yelpcdn.com/bphoto/ZmFmIj1tvazZpq8AYBqbWQ/o.jpg,33.524938,-86.807596,Birmingham,AL,2268 9th Ave N,35203
sx9myDBm2zCKIyFk_Suymg,Catering By Bellinis,3.5,3,https://www.yelp.com/biz/catering-by-bellinis-birmingham-2?adjust_creative=7QcreiNcfG2XG4IiEgZjvw&utm_campaign=yelp_api_v3&utm_medium=api_v3_business_search&utm_source=7QcreiNcfG2XG4IiEgZjvw,https://s3-media2.fl.yelpcdn.com/bphoto/vedg-OcH5GOeNYVWoJrXRA/o.jpg,33.412564863798,-86.6746653711919,Birmingham,AL,6801 Cahaba Valley Rd,35242
3kh3Rn9J0pFvq2VOyj9EVA,Post Office Pies,3.5,8,https://www.yelp.com/biz/post-office-pies-birmingham-2?adjust_creative=7QcreiNcfG2XG4IiEgZjvw&utm_campaign=yelp_api_v3&utm_medium=api_v3_business_search&utm_source=7QcreiNcfG2XG4IiEgZjvw,https://s3-media1.fl.yelpcdn.com/bphoto/cSFHZtPkQW0kJe3HXN4y6w/o.jpg,33.5246353149414,-86.7738800048828,Birmingham,AL,209 41st St S,35222
PFA-MZNjB3Buar0YDFcqeA,Yellow Bicycle Catering Company,4.0,10,https://www.yelp.com/biz/yellow-bicycle-catering-company-birmingham-2?adjust_creative=7QcreiNcfG2XG4IiEgZjvw&utm_campaign=yelp_api_v3&utm_medium=api_v3_business_search&utm_source=7QcreiNcfG2XG4IiEgZjvw,https://s3-media2.fl.yelpcdn.com/bphoto/BUV4AUl_jPShZe2kYv9OnA/o.jpg,33.46535,-86.82662,Birmingham,AL,195 Vulcan Rd,35209
6GSqAn9ESEvfU8Psxzhuvg,Majestic Catering Service,5.0,1,https://www.yelp.com/biz/majestic-catering-service-birmingham?adjust_creative=7QcreiNcfG2XG4IiEgZjvw&utm_campaign=yelp_api_v3&utm_medium=api_v3_business_search&utm_source=7QcreiNcfG2XG4IiEgZjvw,https://s3-media2.fl.yelpcdn.com/bphoto/z9ih0b3MbKzZ9jSP5yCgbA/o.jpg,33.3465977,-86.9330783,Birmingham,AL,2420 Morgan Rd,35022
NJLOLTZDsJk8MHVrSeIggA,All Around Town Catering,2.5,4,https://www.yelp.com/biz/all-around-town-catering-birmingham?adjust_creative=7QcreiNcfG2XG4IiEgZjvw&utm_campaign=yelp_api_v3&utm_medium=api_v3_business_search&utm_source=7QcreiNcfG2XG4IiEgZjvw,,33.4043054,-86.8053219,Birmingham,AL,1561 Montgomery Hwy,35216
_3qcCzo6BqUZFeJOqAjAXA,Catered To You Events,5.0,1,https://www.yelp.com/biz/catered-to-you-events-birmingham?adjust_creative=7QcreiNcfG2XG4IiEgZjvw&utm_campaign=yelp_api_v3&utm_medium=api_v3_business_search&utm_source=7QcreiNcfG2XG4IiEgZjvw,https://s3-media2.fl.yelpcdn.com/bphoto/St5c4-2bacRKeyNyUshLrw/o.jpg,33.514714,-86.797411,Birmingham,AL,2443 1st Ave S,35210
tWOEiuMJj65fWlU61qh_-g,Gourmet Pantry Catering,5.0,1,https://www.yelp.com/biz/gourmet-pantry-catering-birmingham-2?adjust_creative=7QcreiNcfG2XG4IiEgZjvw&utm_campaign=yelp_api_v3&utm_medium=api_v3_business_search&utm_source=7QcreiNcfG2XG4IiEgZjvw,https://s3-media2.fl.yelpcdn.com/bphoto/WwBN0GitpaRqRzy89tT9QQ/o.jpg,33.3466499,-86.93385,Birmingham,AL,2420 Morgan Rd,35022
lOyAKuK7gWgFOgWlY4CQNQ,Chick-fil-A,4.5,19,https://www.yelp.com/biz/chick-fil-a-enterprise?adjust_creative=7QcreiNcfG2XG4IiEgZjvw&utm_campaign=yelp_api_v3&utm_medium=api_v3_business_search&utm_source=7QcreiNcfG2XG4IiEgZjvw,https://s3-media1.fl.yelpcdn.com/bphoto/hMI66Ra2p1oRAQGyqgSugQ/o.jpg,31.318631,-85.8298666,Enterprise,AL,626 Boll Weevil Cir,36330
6gDVIeMi2SUEmHPfsagsAg,Taco Bell,3.0,10,https://www.yelp.com/biz/taco-bell-daleville-5?adjust_creative=7QcreiNcfG2XG4IiEgZjvw&utm_campaign=yelp_api_v3&utm_medium=api_v3_business_search&utm_source=7QcreiNcfG2XG4IiEgZjvw,https://s3-media3.fl.yelpcdn.com/bphoto/YkSQeY4bKg-n18pO37U_Fw/o.jpg,31.306785,-85.7144,Daleville,AL,935 N Daleville Ave,36322
yKOHfiIG9xl9JJ_8-X1ZYg,Church's Chicken,3.5,3,https://www.yelp.com/biz/churchs-chicken-ozark?adjust_creative=7QcreiNcfG2XG4IiEgZjvw&utm_campaign=yelp_api_v3&utm_medium=api_v3_business_search&utm_source=7QcreiNcfG2XG4IiEgZjvw,https://s3-media3.fl.yelpcdn.com/bphoto/FiJk_3I4NKQ7Bq1zyElBbA/o.jpg,31.4490148,-85.6560984,Ozark,AL,1164 Andrews Ave,36360
2eIIqw_wIQWNp2pEx2lDaw,McDonald's,2.5,15,https://www.yelp.com/biz/mcdonalds-daleville-3?adjust_creative=7QcreiNcfG2XG4IiEgZjvw&utm_campaign=yelp_api_v3&utm_medium=api_v3_business_search&utm_source=7QcreiNcfG2XG4IiEgZjvw,https://s3-media4.fl.yelpcdn.com/bphoto/gvgWVPdeGenwv6cgU1jD2Q/o.jpg,31.3149431352907,-85.7117975541269,Daleville,AL,575 N Daleville Ave,36322
BcUD4d4VDCXES3QQ-oHdEQ,Zaxby's Chicken Fingers & Buffalo Wings,2.5,9,https://www.yelp.com/biz/zaxbys-chicken-fingers-and-buffalo-wings-enterprise?adjust_creative=7QcreiNcfG2XG4IiEgZjvw&utm_campaign=yelp_api_v3&utm_medium=api_v3_business_search&utm_source=7QcreiNcfG2XG4IiEgZjvw,https://s3-media1.fl.yelpcdn.com/bphoto/GSdfJFtCbRZ-iUCW7MAADw/o.jpg,31.318663,-85.831299,Enterprise,AL,623 Boll Weevil Cir,36330
OXitvcugfw_jY-EeatknBQ,Bojangles,4.0,5,https://www.yelp.com/biz/bojangles-enterprise?adjust_creative=7QcreiNcfG2XG4IiEgZjvw&utm_campaign=yelp_api_v3&utm_medium=api_v3_business_search&utm_source=7QcreiNcfG2XG4IiEgZjvw,https://s3-media3.fl.yelpcdn.com/bphoto/RJfIP50Lt9k4ctL38vKz7A/o.jpg,31.3297207504894,-85.8387351036072,Enterprise,AL,904 E Lee St,36330
Y1QDHagB9mict0iSnAAeLw,Popeyes Louisiana Kitchen,2.5,5,https://www.yelp.com/biz/popeyes-louisiana-kitchen-enterprise?adjust_creative=7QcreiNcfG2XG4IiEgZjvw&utm_campaign=yelp_api_v3&utm_medium=api_v3_business_search&utm_source=7QcreiNcfG2XG4IiEgZjvw,https://s3-media1.fl.yelpcdn.com/bphoto/tqe4xi8aiv4FqSIIT8xIJQ/o.jpg,31.32555,-85.833801,Enterprise,AL,707 E Boll Weevil Cir,36330
ZeJSKHNSehH92Asjowx-Zw,Sonic Drive-In,4.5,4,https://www.yelp.com/biz/sonic-drive-in-ozark-2?adjust_creative=7QcreiNcfG2XG4IiEgZjvw&utm_campaign=yelp_api_v3&utm_medium=api_v3_business_search&utm_source=7QcreiNcfG2XG4IiEgZjvw,https://s3-media3.fl.yelpcdn.com/bphoto/BsazMoT0R_ZdsEvvdT8fbw/o.jpg,31.4487923809198,-85.6599229574203,Ozark,AL,946 US Highway 231 S,36360
o6LdMq_QpsAbZzdpnhCNKg,Firehouse Subs,3.0,16,https://www.yelp.com/biz/firehouse-subs-enterprise?adjust_creative=7QcreiNcfG2XG4IiEgZjvw&utm_campaign=yelp_api_v3&utm_medium=api_v3_business_search&utm_source=7QcreiNcfG2XG4IiEgZjvw,https://s3-media2.fl.yelpcdn.com/bphoto/6FwFAT7tn6v3V7jmZyLdLA/o.jpg,31.31509,-85.83113,Enterprise,AL,607-E Boll Weevil Cir,36330
0rmlLEuQZ4ORlI29VDT94w,Hardee's,3.5,5,https://www.yelp.com/biz/hardees-ozark-2?adjust_creative=7QcreiNcfG2XG4IiEgZjvw&utm_campaign=yelp_api_v3&utm_medium=api_v3_business_search&utm_source=7QcreiNcfG2XG4IiEgZjvw,https://s3-media3.fl.yelpcdn.com/bphoto/_oDods7I1hiikCPCc7TvPA/o.jpg,31.4483693050508,-85.6566951558751,Ozark,AL,1333 Andrews Ave,36360
sQCMQzaBBZxatGerDMp1rg,Arby's,3.5,3,https://www.yelp.com/biz/arbys-enterprise?adjust_creative=7QcreiNcfG2XG4IiEgZjvw&utm_campaign=yelp_api_v3&utm_medium=api_v3_business_search&utm_source=7QcreiNcfG2XG4IiEgZjvw,https://s3-media2.fl.yelpcdn.com/bphoto/hcEo8ELM-2VUm3E1zd4zCw/o.jpg,31.325802,-85.833944,Enterprise,AL,707 Boll Weevil Cir,36330
-RB081zPFIJcwe9_eniQbg,Arby's,3.0,3,https://www.yelp.com/biz/arbys-ozark-4?adjust_creative=7QcreiNcfG2XG4IiEgZjvw&utm_campaign=yelp_api_v3&utm_medium=api_v3_business_search&utm_source=7QcreiNcfG2XG4IiEgZjvw,https://s3-media2.fl.yelpcdn.com/bphoto/FWsI-nUBAw6Y0aB2x5sKLA/o.jpg,31.427725,-85.619521,Ozark,AL,3771 S US Hwy 231,36360
dlUgVcqlD7u-7dC-YKbeeA,Sonic Drive-In,2.5,8,https://www.yelp.com/biz/sonic-drive-in-enterprise-2?adjust_creative=7QcreiNcfG2XG4IiEgZjvw&utm_campaign=yelp_api_v3&utm_medium=api_v3_business_search&utm_source=7QcreiNcfG2XG4IiEgZjvw,https://s3-media1.fl.yelpcdn.com/bphoto/SQrZ_FRuXzBtBHnIrrf6MQ/o.jpg,31.324688,-85.832775,Enterprise,AL,705 Boll Weevil Cir,36330
3f0mwPjO06R2dxbX2H3YOg,Burger King,2.0,3,https://www.yelp.com/biz/burger-king-enterprise-2?adjust_creative=7QcreiNcfG2XG4IiEgZjvw&utm_campaign=yelp_api_v3&utm_medium=api_v3_business_search&utm_source=7QcreiNcfG2XG4IiEgZjvw,https://s3-media2.fl.yelpcdn.com/bphoto/fc1LmmAHwBGB9ChW5_UUeQ/o.jpg,31.323815,-85.832356,Enterprise,AL,701 Boll Weevil Cir,36330
RW7j7iGIO7U8hrYGS3ncAg,Wendy's,2.5,4,https://www.yelp.com/biz/wendys-ozark-3?adjust_creative=7QcreiNcfG2XG4IiEgZjvw&utm_campaign=yelp_api_v3&utm_medium=api_v3_business_search&utm_source=7QcreiNcfG2XG4IiEgZjvw,https://s3-media2.fl.yelpcdn.com/bphoto/o-Wo9GOv46PHDYGLzKCkEQ/o.jpg,31.443231,-85.652184,Ozark,AL,1532 S Us Highway 231,36360
rJhKabxyWRGSgpYpMbDMcA,McDonald's,2.5,15,https://www.yelp.com/biz/mcdonalds-ozark-9?adjust_creative=7QcreiNcfG2XG4IiEgZjvw&utm_campaign=yelp_api_v3&utm_medium=api_v3_business_search&utm_source=7QcreiNcfG2XG4IiEgZjvw,https://s3-media4.fl.yelpcdn.com/bphoto/sjbilWz2tsvuOKTNgaiFzw/o.jpg,31.4489558,-85.65819,Ozark,AL,1001 US Hwy 231,36360
Cfz2HPGBkGvhzKzmvQ0pyg,Popeyes Louisiana Kitchen,1.0,1,https://www.yelp.com/biz/popeyes-louisiana-kitchen-fort-rucker?adjust_creative=7QcreiNcfG2XG4IiEgZjvw&utm_campaign=yelp_api_v3&utm_medium=api_v3_business_search&utm_source=7QcreiNcfG2XG4IiEgZjvw,https://s3-media4.fl.yelpcdn.com/bphoto/lG76gT2h1BAeb-eree7HKA/o.jpg,31.324670791626,-85.7269973754883,Fort Rucker,AL,Fort Rucker Food Court,36362
CFbEwJfW6uxvhpZd9WV2Rg,Captain D's,3.0,6,https://www.yelp.com/biz/captain-ds-ozark?adjust_creative=7QcreiNcfG2XG4IiEgZjvw&utm_campaign=yelp_api_v3&utm_medium=api_v3_business_search&utm_source=7QcreiNcfG2XG4IiEgZjvw,https://s3-media3.fl.yelpcdn.com/bphoto/Us7dNHlO8m84I0f1BufXeg/o.jpg,31.4468421174189,-85.6575386908073,Ozark,AL,116 S US Hwy 231,36360
ACI8xS7GbmD-d4uSHiC08g,Burger King,2.0,4,https://www.yelp.com/biz/burger-king-fort-rucker?adjust_creative=7QcreiNcfG2XG4IiEgZjvw&utm_campaign=yelp_api_v3&utm_medium=api_v3_business_search&utm_source=7QcreiNcfG2XG4IiEgZjvw,https://s3-media4.fl.yelpcdn.com/bphoto/0Z-AWlRHt2j7SHk0rwRWNg/o.jpg,31.336276,-85.710692,Fort Rucker,AL,453 S NOVASEL ST,36362
dArx-ih-UTLiiyMwXiCvaA,McDonald's,2.5,20,https://www.yelp.com/biz/mcdonalds-enterprise?adjust_creative=7QcreiNcfG2XG4IiEgZjvw&utm_campaign=yelp_api_v3&utm_medium=api_v3_business_search&utm_source=7QcreiNcfG2XG4IiEgZjvw,https://s3-media2.fl.yelpcdn.com/bphoto/e_fDImsgOtBLEp5s7Qnrqg/o.jpg,31.3215308070696,-85.8301755,Enterprise,AL,652 Boll Weevil No,36330
erWr_OXhMcOkSa0uyeD5uw,Chick-fil-A,3.5,7,https://www.yelp.com/biz/chick-fil-a-decatur-11?adjust_creative=7QcreiNcfG2XG4IiEgZjvw&utm_campaign=yelp_api_v3&utm_medium=api_v3_business_search&utm_source=7QcreiNcfG2XG4IiEgZjvw,https://s3-media1.fl.yelpcdn.com/bphoto/QlhUfPwt3jL9uxY-S-8D1A/o.jpg,34.5609962,-86.97281,Decatur,AL,2502 Highway 31 S,35603
8IeShpze22zTeLMj3-uiUw,Chick-fil-A,3.5,12,https://www.yelp.com/biz/chick-fil-a-decatur?adjust_creative=7QcreiNcfG2XG4IiEgZjvw&utm_campaign=yelp_api_v3&utm_medium=api_v3_business_search&utm_source=7QcreiNcfG2XG4IiEgZjvw,https://s3-media2.fl.yelpcdn.com/bphoto/j6FE7X4z3a-lNkb1GZkmDQ/o.jpg,34.572626,-87.015745,Decatur,AL,1809 Beltline Rd SW,35601
_SP0pKFgds3SfAbfEs1QZA,Zaxby's Chicken Fingers & Buffalo Wings,3.5,4,https://www.yelp.com/biz/zaxbys-chicken-fingers-and-buffalo-wings-decatur-5?adjust_creative=7QcreiNcfG2XG4IiEgZjvw&utm_campaign=yelp_api_v3&utm_medium=api_v3_business_search&utm_source=7QcreiNcfG2XG4IiEgZjvw,https://s3-media1.fl.yelpcdn.com/bphoto/JjBnoPXwH_K4Umm7tLjMog/o.jpg,34.6021258745716,-86.9804340314436,Decatur,AL,410 Grant St SE,35601
lDABjSKk3-yXNXZAcJeb2A,Dairy Queen Grill & Chill,3.5,11,https://www.yelp.com/biz/dairy-queen-grill-and-chill-decatur-16?adjust_creative=7QcreiNcfG2XG4IiEgZjvw&utm_campaign=yelp_api_v3&utm_medium=api_v3_business_search&utm_source=7QcreiNcfG2XG4IiEgZjvw,https://s3-media4.fl.yelpcdn.com/bphoto/uQS4Y-k185dDUawuIc456g/o.jpg,34.5372962901755,-86.912574917078,Decatur,AL,3219 Pt Mallard Pkwy,35603
q4R2dvFHBTkrvxRPmcXCDA,Sonic Drive-In,2.5,6,https://www.yelp.com/biz/sonic-drive-in-decatur-7?adjust_creative=7QcreiNcfG2XG4IiEgZjvw&utm_campaign=yelp_api_v3&utm_medium=api_v3_business_search&utm_source=7QcreiNcfG2XG4IiEgZjvw,https://s3-media3.fl.yelpcdn.com/bphoto/hPIyvdpxM8u8QIixw5cLTQ/o.jpg,34.5862387326915,-86.9807948955212,Decatur,AL,1325 6th Ave SE,35601
fPoPb-c_jTZLG_ZbqiaEwg,Marco's Pizza Decatur,4.0,5,https://www.yelp.com/biz/marcos-pizza-decatur-decatur-2?adjust_creative=7QcreiNcfG2XG4IiEgZjvw&utm_campaign=yelp_api_v3&utm_medium=api_v3_business_search&utm_source=7QcreiNcfG2XG4IiEgZjvw,https://s3-media4.fl.yelpcdn.com/bphoto/X7wR-DcEUU4OXs1sSWPEqw/o.jpg,34.5605741470649,-86.9910831749439,Decatur,AL,2699 Sandlin Rd SW,35601
X66avYNF8EvHiwQn4j57jA,Taco Bell,4.5,4,https://www.yelp.com/biz/taco-bell-decatur-15?adjust_creative=7QcreiNcfG2XG4IiEgZjvw&utm_campaign=yelp_api_v3&utm_medium=api_v3_business_search&utm_source=7QcreiNcfG2XG4IiEgZjvw,https://s3-media4.fl.yelpcdn.com/bphoto/q5WBrcD4TdlhrzSvdyVvRA/o.jpg,34.541847,-86.921545,Decatur,AL,2928 Point Mallard Pkwy,35603
J-7qodcCaJLCjx-CkNWU1Q,Burger King,3.5,2,https://www.yelp.com/biz/burger-king-decatur-9?adjust_creative=7QcreiNcfG2XG4IiEgZjvw&utm_campaign=yelp_api_v3&utm_medium=api_v3_business_search&utm_source=7QcreiNcfG2XG4IiEgZjvw,https://s3-media4.fl.yelpcdn.com/bphoto/oDe8fBF7uQ_51VM9BxrK8A/o.jpg,34.56613,-86.97396,Decatur,AL,2313 6th Ave,35601
k6Yq6k6J6MZ_pJoOFFZTJQ,Zaxby's Chicken Fingers & Buffalo Wings,3.5,8,https://www.yelp.com/biz/zaxbys-chicken-fingers-and-buffalo-wings-decatur-2?adjust_creative=7QcreiNcfG2XG4IiEgZjvw&utm_campaign=yelp_api_v3&utm_medium=api_v3_business_search&utm_source=7QcreiNcfG2XG4IiEgZjvw,https://s3-media4.fl.yelpcdn.com/bphoto/2k-2baUIDZjOna97Mno-yw/o.jpg,34.554668,-86.999618,Decatur,AL,2830 Spring Ave SW,35603
XlJBlylSvR4pREeRmD8Q1A,Jack's,4.5,3,https://www.yelp.com/biz/jacks-hartselle-2?adjust_creative=7QcreiNcfG2XG4IiEgZjvw&utm_campaign=yelp_api_v3&utm_medium=api_v3_business_search&utm_source=7QcreiNcfG2XG4IiEgZjvw,,34.4419844304652,-86.9422318159745,Hartselle,AL,149 U.S. 31,35640
pA9_S-Vj-uXrwqWr2rSTfw,Popeyes Louisiana Kitchen,1.0,7,https://www.yelp.com/biz/popeyes-louisiana-kitchen-decatur?adjust_creative=7QcreiNcfG2XG4IiEgZjvw&utm_campaign=yelp_api_v3&utm_medium=api_v3_business_search&utm_source=7QcreiNcfG2XG4IiEgZjvw,https://s3-media1.fl.yelpcdn.com/bphoto/5Nzu-du_Uy3h2AVl_zlWuQ/o.jpg,34.5751462,-87.0174204,Decatur,AL,1827 Beltline Rd SW,35601
AKzuypWvht0q2aSFsSoJ_A,Milo's Hamburgers,3.5,22,https://www.yelp.com/biz/milos-hamburgers-decatur?adjust_creative=7QcreiNcfG2XG4IiEgZjvw&utm_campaign=yelp_api_v3&utm_medium=api_v3_business_search&utm_source=7QcreiNcfG2XG4IiEgZjvw,https://s3-media4.fl.yelpcdn.com/bphoto/fxAzdxO2GbPyqjgT4KsUBg/o.jpg,34.5615055634615,-86.9762268700896,Decatur,AL,1005 Beltline Rd SE,35601
-ZzjJqdax_TMbqrJPlwoCA,Krystal,2.0,11,https://www.yelp.com/biz/krystal-decatur-3?adjust_creative=7QcreiNcfG2XG4IiEgZjvw&utm_campaign=yelp_api_v3&utm_medium=api_v3_business_search&utm_source=7QcreiNcfG2XG4IiEgZjvw,https://s3-media1.fl.yelpcdn.com/bphoto/6TNLP92ki2tM_UmrrDoxeA/o.jpg,34.5758109259897,-86.9757543504238,Decatur,AL,1817 6th Ave SE,35601
o0u82j_d4TwPFl90saUm2w,Five Guys,4.0,10,https://www.yelp.com/biz/five-guys-dectur?adjust_creative=7QcreiNcfG2XG4IiEgZjvw&utm_campaign=yelp_api_v3&utm_medium=api_v3_business_search&utm_source=7QcreiNcfG2XG4IiEgZjvw,https://s3-media1.fl.yelpcdn.com/bphoto/pcae6g6cC5LsR88i9tpE9w/o.jpg,34.5600597,-86.9702355,Dectur,AL,1241 Point Mallard Pkwy,35601
kzpJStezpT7lFWuj4VX-hg,Krystal,3.0,10,https://www.yelp.com/biz/krystal-decatur?adjust_creative=7QcreiNcfG2XG4IiEgZjvw&utm_campaign=yelp_api_v3&utm_medium=api_v3_business_search&utm_source=7QcreiNcfG2XG4IiEgZjvw,https://s3-media2.fl.yelpcdn.com/bphoto/5YYkdUekg0UL6uCz-Mfi5w/o.jpg,34.5355043750698,-86.9093911349773,Decatur,AL,3309 Point Mallard Pkwy,35603
3y96ugskYHkEWlitpPK38Q,Taco Bell,3.0,8,https://www.yelp.com/biz/taco-bell-decatur-14?adjust_creative=7QcreiNcfG2XG4IiEgZjvw&utm_campaign=yelp_api_v3&utm_medium=api_v3_business_search&utm_source=7QcreiNcfG2XG4IiEgZjvw,https://s3-media3.fl.yelpcdn.com/bphoto/K6wHeBjJANkH-SWR6NM1OA/o.jpg,34.571814,-87.014356,Decatur,AL,1807 Beltline Rd SW,35601
Q0V9dgTTJx5800XQ6JtU8g,Cafe On Wheels Neon Lilly,4.0,3,https://www.yelp.com/biz/cafe-on-wheels-neon-lilly-decatur-2?adjust_creative=7QcreiNcfG2XG4IiEgZjvw&utm_campaign=yelp_api_v3&utm_medium=api_v3_business_search&utm_source=7QcreiNcfG2XG4IiEgZjvw,https://s3-media2.fl.yelpcdn.com/bphoto/HctZeKdsIDkI4uffHWGOGw/o.jpg,34.68468,-86.79204,Decatur,AL,,35601
kJSTN6tc-XVcQMy_HtcV4A,Jimmy John's,3.5,6,https://www.yelp.com/biz/jimmy-johns-decatur-6?adjust_creative=7QcreiNcfG2XG4IiEgZjvw&utm_campaign=yelp_api_v3&utm_medium=api_v3_business_search&utm_source=7QcreiNcfG2XG4IiEgZjvw,https://s3-media4.fl.yelpcdn.com/bphoto/TckSZ_HF7v_OIT1erE8TGg/o.jpg,34.565108,-86.974084,Decatur,AL,2401 6th Ave SE,35601
Um74ajUN6SUMpyDIJX4n_w,Burger King,2.5,6,https://www.yelp.com/biz/burger-king-decatur-6?adjust_creative=7QcreiNcfG2XG4IiEgZjvw&utm_campaign=yelp_api_v3&utm_medium=api_v3_business_search&utm_source=7QcreiNcfG2XG4IiEgZjvw,https://s3-media1.fl.yelpcdn.com/bphoto/Ii886trTlokeveYvMOmqlw/o.jpg,34.53756,-86.91307,Decatur,AL,3215 Point Mallard Parkway,35603
nCP2OwikMO34BZ96XxVFSg,Burger King,1.0,10,https://www.yelp.com/biz/burger-king-decatur-5?adjust_creative=7QcreiNcfG2XG4IiEgZjvw&utm_campaign=yelp_api_v3&utm_medium=api_v3_business_search&utm_source=7QcreiNcfG2XG4IiEgZjvw,https://s3-media1.fl.yelpcdn.com/bphoto/W7tdGmCNLaKEMJE_SqUQ6g/o.jpg,34.57962,-87.02137,Decatur,AL,2057 Beltline Rd Sw,35601
qDdLzuqWymkMqsHHjpIKcg,Chick-fil-A,4.0,20,https://www.yelp.com/biz/chick-fil-a-dothan?adjust_creative=7QcreiNcfG2XG4IiEgZjvw&utm_campaign=yelp_api_v3&utm_medium=api_v3_business_search&utm_source=7QcreiNcfG2XG4IiEgZjvw,https://s3-media3.fl.yelpcdn.com/bphoto/9tavaC7PBR7CxdI_q0IYgw/o.jpg,31.2442884,-85.428371,Dothan,AL,3418 Ross Clark Cir,36303
fLwYGRTFMbLWdXj5pV9brA,Chick-fil-A,2.0,3,https://www.yelp.com/biz/chick-fil-a-dothan-2?adjust_creative=7QcreiNcfG2XG4IiEgZjvw&utm_campaign=yelp_api_v3&utm_medium=api_v3_business_search&utm_source=7QcreiNcfG2XG4IiEgZjvw,https://s3-media3.fl.yelpcdn.com/bphoto/m2wj1ELfR74FmpIQTzXaOA/o.jpg,31.2548117,-85.4241984,Dothan,AL,900 Commons Dr,36303
SReerliU6qxQKF0nY9EPZg,Chick-fil-A,3.5,5,https://www.yelp.com/biz/chick-fil-a-dothan-3?adjust_creative=7QcreiNcfG2XG4IiEgZjvw&utm_campaign=yelp_api_v3&utm_medium=api_v3_business_search&utm_source=7QcreiNcfG2XG4IiEgZjvw,https://s3-media4.fl.yelpcdn.com/bphoto/rlm8CTEGLXyfcnytY0rlUg/o.jpg,31.217705,-85.3627502,Dothan,AL,1905 E Main St,36301
qGdH_qtCGZ4wxEMRDBSZrg,Arby's,3.5,5,https://www.yelp.com/biz/arbys-dothan-2?adjust_creative=7QcreiNcfG2XG4IiEgZjvw&utm_campaign=yelp_api_v3&utm_medium=api_v3_business_search&utm_source=7QcreiNcfG2XG4IiEgZjvw,https://s3-media2.fl.yelpcdn.com/bphoto/MnNCtnLmIzu4tgxaHKjb3g/o.jpg,31.2685871124268,-85.4448852539062,Dothan,AL,124 Hospitality Ln,36303
Zan_D667Fpfezf4jtON7ug,Popeyes Louisiana Kitchen,1.5,5,https://www.yelp.com/biz/popeyes-louisiana-kitchen-dothan-2?adjust_creative=7QcreiNcfG2XG4IiEgZjvw&utm_campaign=yelp_api_v3&utm_medium=api_v3_business_search&utm_source=7QcreiNcfG2XG4IiEgZjvw,https://s3-media1.fl.yelpcdn.com/bphoto/79xrOwy_uzTJIXHIA2t1Ew/o.jpg,31.191168,-85.405087,Dothan,AL,2231 Ross Clark Cir,36301
5XAhw51fvMGrhZhHjH65nQ,Zaxby's,3.0,2,https://www.yelp.com/biz/zaxbys-dothan-4?adjust_creative=7QcreiNcfG2XG4IiEgZjvw&utm_campaign=yelp_api_v3&utm_medium=api_v3_business_search&utm_source=7QcreiNcfG2XG4IiEgZjvw,https://s3-media3.fl.yelpcdn.com/bphoto/cOKph6KQU6fXSuo0eUqayA/o.jpg,31.1806264193543,-85.4016094654798,Dothan,AL,3205 S Oates St,36301
vvn4F-NL_t0sIr2ZrNBbPA,Five Guys,3.5,26,https://www.yelp.com/biz/five-guys-dothan-2?adjust_creative=7QcreiNcfG2XG4IiEgZjvw&utm_campaign=yelp_api_v3&utm_medium=api_v3_business_search&utm_source=7QcreiNcfG2XG4IiEgZjvw,https://s3-media2.fl.yelpcdn.com/bphoto/iHFGsL908K3Fa3iUQ5csbA/o.jpg,31.2390819231514,-85.4613955482776,Dothan,AL,4650 W Main St,36305
7Ll-emrQn8KVGKdbQnij4Q,McDonald's,3.0,11,https://www.yelp.com/biz/mcdonalds-dothan?adjust_creative=7QcreiNcfG2XG4IiEgZjvw&utm_campaign=yelp_api_v3&utm_medium=api_v3_business_search&utm_source=7QcreiNcfG2XG4IiEgZjvw,https://s3-media3.fl.yelpcdn.com/bphoto/KjOgn5Q2m6Bi3PVx-S5ftQ/o.jpg,31.1892259213216,-85.3978865631734,Dothan,AL,2101 Ross Clark Cir,36301
JjCWBQj70gKgkTdA4IzjjA,McDonald's,5.0,1,https://www.yelp.com/biz/mcdonalds-dothan-5?adjust_creative=7QcreiNcfG2XG4IiEgZjvw&utm_campaign=yelp_api_v3&utm_medium=api_v3_business_search&utm_source=7QcreiNcfG2XG4IiEgZjvw,https://s3-media2.fl.yelpcdn.com/bphoto/YZxauxcL9LMxUMUHAjR98w/o.jpg,31.2248554246208,-85.4005292057991,Dothan,AL,619 W Main St,36303
1HOYQQkrFTAoJGpXFpVfJQ,Sonic Drive-In,3.5,6,https://www.yelp.com/biz/sonic-drive-in-dothan-4?adjust_creative=7QcreiNcfG2XG4IiEgZjvw&utm_campaign=yelp_api_v3&utm_medium=api_v3_business_search&utm_source=7QcreiNcfG2XG4IiEgZjvw,https://s3-media4.fl.yelpcdn.com/bphoto/DZrryOB4FZfBUYp_7XDz-A/o.jpg,31.2181704,-85.3600077,Dothan,AL,1067 Ross Clark Cir S,36303
tF163DCZMWcve1z_6vNbsQ,Checkers,2.5,3,https://www.yelp.com/biz/checkers-dothan-3?adjust_creative=7QcreiNcfG2XG4IiEgZjvw&utm_campaign=yelp_api_v3&utm_medium=api_v3_business_search&utm_source=7QcreiNcfG2XG4IiEgZjvw,https://s3-media4.fl.yelpcdn.com/bphoto/jdP6zWA37HjEc-EqoA1kjQ/o.jpg,31.227694,-85.432844,Dothan,AL,3091 Ross Clark Circle SW,36301
LcNSRubj3_D94TIdWzlZsA,McDonald's,2.5,3,https://www.yelp.com/biz/mcdonalds-dothan-11?adjust_creative=7QcreiNcfG2XG4IiEgZjvw&utm_campaign=yelp_api_v3&utm_medium=api_v3_business_search&utm_source=7QcreiNcfG2XG4IiEgZjvw,https://s3-media3.fl.yelpcdn.com/bphoto/IsLHnQX8O3GqUBGW5d58Iw/o.jpg,31.2708321715001,-85.4494580626488,Dothan,AL,5001 Montgomery Hwy,36303
ha8jvRBoVXJstGgHfpX-7A,Captain D's,2.5,3,https://www.yelp.com/biz/captain-ds-dothan-2?adjust_creative=7QcreiNcfG2XG4IiEgZjvw&utm_campaign=yelp_api_v3&utm_medium=api_v3_business_search&utm_source=7QcreiNcfG2XG4IiEgZjvw,https://s3-media3.fl.yelpcdn.com/bphoto/QVmaElqkO2iNcJJX1uu-sw/o.jpg,31.2434659938574,-85.4304633327638,Dothan,AL,3395 Ross Clark Cir,36303
rQaG_XI_FNeHPcyUgp9k4g,Hardee's,5.0,1,https://www.yelp.com/biz/hardees-dothan-3?adjust_creative=7QcreiNcfG2XG4IiEgZjvw&utm_campaign=yelp_api_v3&utm_medium=api_v3_business_search&utm_source=7QcreiNcfG2XG4IiEgZjvw,https://s3-media2.fl.yelpcdn.com/bphoto/qd7UB8W8-x7uVtq4jpf6CQ/o.jpg,31.2462922,-85.4279952,Dothan,AL,3471 Ross Clark Cir,36303
RC6gqXPo5byax1DnV1niZw,Cheeburger Cheeburger,3.5,52,https://www.yelp.com/biz/cheeburger-cheeburger-dothan?adjust_creative=7QcreiNcfG2XG4IiEgZjvw&utm_campaign=yelp_api_v3&utm_medium=api_v3_business_search&utm_source=7QcreiNcfG2XG4IiEgZjvw,https://s3-media4.fl.yelpcdn.com/bphoto/ogFVsrFcqffRZ-1QlreFXQ/o.jpg,31.26842,-85.44918,Dothan,AL,4871 Mongtomery Hwy,36303
yKOHfiIG9xl9JJ_8-X1ZYg,Church's Chicken,3.5,3,https://www.yelp.com/biz/churchs-chicken-ozark?adjust_creative=7QcreiNcfG2XG4IiEgZjvw&utm_campaign=yelp_api_v3&utm_medium=api_v3_business_search&utm_source=7QcreiNcfG2XG4IiEgZjvw,https://s3-media3.fl.yelpcdn.com/bphoto/FiJk_3I4NKQ7Bq1zyElBbA/o.jpg,31.4490148,-85.6560984,Ozark,AL,1164 Andrews Ave,36360
YSWOA2suOPY88_TDHyp13A,Panda Express,3.0,15,https://www.yelp.com/biz/panda-express-dothan-2?adjust_creative=7QcreiNcfG2XG4IiEgZjvw&utm_campaign=yelp_api_v3&utm_medium=api_v3_business_search&utm_source=7QcreiNcfG2XG4IiEgZjvw,https://s3-media1.fl.yelpcdn.com/bphoto/amB4-hWX7P7ax7OK64tzgQ/o.jpg,31.2583928553242,-85.4355806484818,Dothan,AL,3777 Montgomery Hwy,36303
iMwX24t7LecHavAR5pIQlg,Jersey Mike's Subs,2.5,5,https://www.yelp.com/biz/jersey-mikes-subs-dothan-2?adjust_creative=7QcreiNcfG2XG4IiEgZjvw&utm_campaign=yelp_api_v3&utm_medium=api_v3_business_search&utm_source=7QcreiNcfG2XG4IiEgZjvw,https://s3-media2.fl.yelpcdn.com/bphoto/SkKcZGl2OST8xT9uSO6fjA/o.jpg,31.25369617,-85.430652,Dothan,AL,104 Rock Bridge Rd,36303
cv3m_joc0frhvPkw9v0xUA,Sonic Drive-In,2.0,5,https://www.yelp.com/biz/sonic-drive-in-dothan-2?adjust_creative=7QcreiNcfG2XG4IiEgZjvw&utm_campaign=yelp_api_v3&utm_medium=api_v3_business_search&utm_source=7QcreiNcfG2XG4IiEgZjvw,https://s3-media3.fl.yelpcdn.com/bphoto/6c56XO30oUy474ThX8D1Nw/o.jpg,31.233849,-85.4550236,Dothan,AL,4177 W Main St,36305
KXGDfcWBzUpJN8eJgNxISA,Fresh Kitchen,5.0,1,https://www.yelp.com/biz/fresh-kitchen-dothan?adjust_creative=7QcreiNcfG2XG4IiEgZjvw&utm_campaign=yelp_api_v3&utm_medium=api_v3_business_search&utm_source=7QcreiNcfG2XG4IiEgZjvw,https://s3-media4.fl.yelpcdn.com/bphoto/bGYnFkdkUKiLp-s64dyBbg/o.jpg,31.21678,-85.39286,Dothan,AL,,36301
lOyAKuK7gWgFOgWlY4CQNQ,Chick-fil-A,4.5,19,https://www.yelp.com/biz/chick-fil-a-enterprise?adjust_creative=7QcreiNcfG2XG4IiEgZjvw&utm_campaign=yelp_api_v3&utm_medium=api_v3_business_search&utm_source=7QcreiNcfG2XG4IiEgZjvw,https://s3-media1.fl.yelpcdn.com/bphoto/hMI66Ra2p1oRAQGyqgSugQ/o.jpg,31.318631,-85.8298666,Enterprise,AL,626 Boll Weevil Cir,36330
BcUD4d4VDCXES3QQ-oHdEQ,Zaxby's Chicken Fingers & Buffalo Wings,2.5,9,https://www.yelp.com/biz/zaxbys-chicken-fingers-and-buffalo-wings-enterprise?adjust_creative=7QcreiNcfG2XG4IiEgZjvw&utm_campaign=yelp_api_v3&utm_medium=api_v3_business_search&utm_source=7QcreiNcfG2XG4IiEgZjvw,https://s3-media1.fl.yelpcdn.com/bphoto/GSdfJFtCbRZ-iUCW7MAADw/o.jpg,31.318663,-85.831299,Enterprise,AL,623 Boll Weevil Cir,36330
OXitvcugfw_jY-EeatknBQ,Bojangles,4.0,5,https://www.yelp.com/biz/bojangles-enterprise?adjust_creative=7QcreiNcfG2XG4IiEgZjvw&utm_campaign=yelp_api_v3&utm_medium=api_v3_business_search&utm_source=7QcreiNcfG2XG4IiEgZjvw,https://s3-media3.fl.yelpcdn.com/bphoto/RJfIP50Lt9k4ctL38vKz7A/o.jpg,31.3297207504894,-85.8387351036072,Enterprise,AL,904 E Lee St,36330
Y1QDHagB9mict0iSnAAeLw,Popeyes Louisiana Kitchen,2.5,5,https://www.yelp.com/biz/popeyes-louisiana-kitchen-enterprise?adjust_creative=7QcreiNcfG2XG4IiEgZjvw&utm_campaign=yelp_api_v3&utm_medium=api_v3_business_search&utm_source=7QcreiNcfG2XG4IiEgZjvw,https://s3-media1.fl.yelpcdn.com/bphoto/tqe4xi8aiv4FqSIIT8xIJQ/o.jpg,31.32555,-85.833801,Enterprise,AL,707 E Boll Weevil Cir,36330
o6LdMq_QpsAbZzdpnhCNKg,Firehouse Subs,3.0,16,https://www.yelp.com/biz/firehouse-subs-enterprise?adjust_creative=7QcreiNcfG2XG4IiEgZjvw&utm_campaign=yelp_api_v3&utm_medium=api_v3_business_search&utm_source=7QcreiNcfG2XG4IiEgZjvw,https://s3-media2.fl.yelpcdn.com/bphoto/6FwFAT7tn6v3V7jmZyLdLA/o.jpg,31.31509,-85.83113,Enterprise,AL,607-E Boll Weevil Cir,36330
sQCMQzaBBZxatGerDMp1rg,Arby's,3.5,3,https://www.yelp.com/biz/arbys-enterprise?adjust_creative=7QcreiNcfG2XG4IiEgZjvw&utm_campaign=yelp_api_v3&utm_medium=api_v3_business_search&utm_source=7QcreiNcfG2XG4IiEgZjvw,https://s3-media2.fl.yelpcdn.com/bphoto/hcEo8ELM-2VUm3E1zd4zCw/o.jpg,31.325802,-85.833944,Enterprise,AL,707 Boll Weevil Cir,36330
dlUgVcqlD7u-7dC-YKbeeA,Sonic Drive-In,2.5,8,https://www.yelp.com/biz/sonic-drive-in-enterprise-2?adjust_creative=7QcreiNcfG2XG4IiEgZjvw&utm_campaign=yelp_api_v3&utm_medium=api_v3_business_search&utm_source=7QcreiNcfG2XG4IiEgZjvw,https://s3-media1.fl.yelpcdn.com/bphoto/SQrZ_FRuXzBtBHnIrrf6MQ/o.jpg,31.324688,-85.832775,Enterprise,AL,705 Boll Weevil Cir,36330
3f0mwPjO06R2dxbX2H3YOg,Burger King,2.0,3,https://www.yelp.com/biz/burger-king-enterprise-2?adjust_creative=7QcreiNcfG2XG4IiEgZjvw&utm_campaign=yelp_api_v3&utm_medium=api_v3_business_search&utm_source=7QcreiNcfG2XG4IiEgZjvw,https://s3-media2.fl.yelpcdn.com/bphoto/fc1LmmAHwBGB9ChW5_UUeQ/o.jpg,31.323815,-85.832356,Enterprise,AL,701 Boll Weevil Cir,36330
yKOHfiIG9xl9JJ_8-X1ZYg,Church's Chicken,3.5,3,https://www.yelp.com/biz/churchs-chicken-ozark?adjust_creative=7QcreiNcfG2XG4IiEgZjvw&utm_campaign=yelp_api_v3&utm_medium=api_v3_business_search&utm_source=7QcreiNcfG2XG4IiEgZjvw,https://s3-media3.fl.yelpcdn.com/bphoto/FiJk_3I4NKQ7Bq1zyElBbA/o.jpg,31.4490148,-85.6560984,Ozark,AL,1164 Andrews Ave,36360
dArx-ih-UTLiiyMwXiCvaA,McDonald's,2.5,20,https://www.yelp.com/biz/mcdonalds-enterprise?adjust_creative=7QcreiNcfG2XG4IiEgZjvw&utm_campaign=yelp_api_v3&utm_medium=api_v3_business_search&utm_source=7QcreiNcfG2XG4IiEgZjvw,https://s3-media2.fl.yelpcdn.com/bphoto/e_fDImsgOtBLEp5s7Qnrqg/o.jpg,31.3215308070696,-85.8301755,Enterprise,AL,652 Boll Weevil No,36330
J4V2qsbuAQe-2NFWjA9NYg,Jimmy John's,2.5,10,https://www.yelp.com/biz/jimmy-johns-enterprise?adjust_creative=7QcreiNcfG2XG4IiEgZjvw&utm_campaign=yelp_api_v3&utm_medium=api_v3_business_search&utm_source=7QcreiNcfG2XG4IiEgZjvw,https://s3-media4.fl.yelpcdn.com/bphoto/a21SIYpwqweLvjSBDyOesw/o.jpg,31.324316,-85.828863,Enterprise,AL,913 Rucker Blvd,36330
fB1lHObiM2WZ3kn5U8_V1Q,Hardee's,2.0,1,https://www.yelp.com/biz/hardees-enterprise-2?adjust_creative=7QcreiNcfG2XG4IiEgZjvw&utm_campaign=yelp_api_v3&utm_medium=api_v3_business_search&utm_source=7QcreiNcfG2XG4IiEgZjvw,https://s3-media2.fl.yelpcdn.com/bphoto/SYdK1W9tKCU8RNrRwCDcTA/o.jpg,31.323861,-85.829237,Enterprise,AL,911 Fort Rucker Blvd,36330
4PfJlxtGPeor_bqPEi3Y-Q,Captain D's,3.0,4,https://www.yelp.com/biz/captain-ds-enterprise?adjust_creative=7QcreiNcfG2XG4IiEgZjvw&utm_campaign=yelp_api_v3&utm_medium=api_v3_business_search&utm_source=7QcreiNcfG2XG4IiEgZjvw,https://s3-media2.fl.yelpcdn.com/bphoto/T-rOP0A8L3alUc6iKoT8QA/o.jpg,31.32699,-85.8210299,Enterprise,AL,1115 Ft Rucker Blvd,36330
PakS0eizvD27GIFy0rUdew,KFC,1.5,7,https://www.yelp.com/biz/kfc-enterprise?adjust_creative=7QcreiNcfG2XG4IiEgZjvw&utm_campaign=yelp_api_v3&utm_medium=api_v3_business_search&utm_source=7QcreiNcfG2XG4IiEgZjvw,https://s3-media2.fl.yelpcdn.com/bphoto/p4nCzskxjWeo7-IlcIQbCA/o.jpg,31.3176267763389,-85.8311,Enterprise,AL,612 Boll Weevill Cir,36330
PsvVX-YuLYds1UqBgeqBwA,Dairy Queen Grill & Chill,2.5,8,https://www.yelp.com/biz/dairy-queen-grill-and-chill-enterprise-7?adjust_creative=7QcreiNcfG2XG4IiEgZjvw&utm_campaign=yelp_api_v3&utm_medium=api_v3_business_search&utm_source=7QcreiNcfG2XG4IiEgZjvw,https://s3-media4.fl.yelpcdn.com/bphoto/atbF0d1HVlYe5ZJFsZkHCw/o.jpg,31.3204046198101,-85.8299803733826,Enterprise,AL,648 Boll Weevil Cir,36330
EKcRHGK8rGINCrYFycClng,Wendy's,1.5,14,https://www.yelp.com/biz/wendys-enterprise?adjust_creative=7QcreiNcfG2XG4IiEgZjvw&utm_campaign=yelp_api_v3&utm_medium=api_v3_business_search&utm_source=7QcreiNcfG2XG4IiEgZjvw,https://s3-media2.fl.yelpcdn.com/bphoto/NKEyYqLPXNqnFWHTtqsH3Q/o.jpg,31.32381,-85.82546,Enterprise,AL,1002 Fort Rucker Blvd.,36330
DA3_7B1HqyVN_g2hVA0Kfw,Panda Express,2.0,32,https://www.yelp.com/biz/panda-express-enterprise?adjust_creative=7QcreiNcfG2XG4IiEgZjvw&utm_campaign=yelp_api_v3&utm_medium=api_v3_business_search&utm_source=7QcreiNcfG2XG4IiEgZjvw,https://s3-media4.fl.yelpcdn.com/bphoto/eeE4uF7VuwSh9MPlK577ag/o.jpg,31.3275776,-85.8365021,Enterprise,AL,847 Boll Weevil Cir,36330
rG27zQeJ1ZiJcMpDSXtw3g,Taco Bell,1.5,14,https://www.yelp.com/biz/taco-bell-enterprise?adjust_creative=7QcreiNcfG2XG4IiEgZjvw&utm_campaign=yelp_api_v3&utm_medium=api_v3_business_search&utm_source=7QcreiNcfG2XG4IiEgZjvw,https://s3-media2.fl.yelpcdn.com/bphoto/6zpGjEhfaPO2oihdUCiPyA/o.jpg,31.32318,-85.831338,Enterprise,AL,602 Boll Weevil Circle,36330
kmuvgbayMlmsFaPavZwilg,Church's Chicken,1.0,3,https://www.yelp.com/biz/churchs-chicken-enterprise?adjust_creative=7QcreiNcfG2XG4IiEgZjvw&utm_campaign=yelp_api_v3&utm_medium=api_v3_business_search&utm_source=7QcreiNcfG2XG4IiEgZjvw,https://s3-media2.fl.yelpcdn.com/bphoto/1xu0bu45t7jlrLRVVQpgkg/o.jpg,31.335394,-85.8558009,Enterprise,AL,1106 Boll Weevil Cir,36330
6gDVIeMi2SUEmHPfsagsAg,Taco Bell,3.0,10,https://www.yelp.com/biz/taco-bell-daleville-5?adjust_creative=7QcreiNcfG2XG4IiEgZjvw&utm_campaign=yelp_api_v3&utm_medium=api_v3_business_search&utm_source=7QcreiNcfG2XG4IiEgZjvw,https://s3-media3.fl.yelpcdn.com/bphoto/YkSQeY4bKg-n18pO37U_Fw/o.jpg,31.306785,-85.7144,Daleville,AL,935 N Daleville Ave,36322
JqLFgjbeoYeYHtgV7E3DRg,Chick-fil-A,5.0,2,https://www.yelp.com/biz/chick-fil-a-florence-3?adjust_creative=7QcreiNcfG2XG4IiEgZjvw&utm_campaign=yelp_api_v3&utm_medium=api_v3_business_search&utm_source=7QcreiNcfG2XG4IiEgZjvw,https://s3-media3.fl.yelpcdn.com/bphoto/m89eWvjoRb0su6ZP4UD-Cg/o.jpg,34.8384806,-87.6344249,Florence,AL,301 Cox Creek Pkwy,35630
_5hzVYdkwyuTmaokxE8m1Q,Chick-fil-A,4.0,2,https://www.yelp.com/biz/chick-fil-a-florence-7?adjust_creative=7QcreiNcfG2XG4IiEgZjvw&utm_campaign=yelp_api_v3&utm_medium=api_v3_business_search&utm_source=7QcreiNcfG2XG4IiEgZjvw,https://s3-media3.fl.yelpcdn.com/bphoto/mOzcgRQQCJa4akeoWtJ9Wg/o.jpg,34.838499,-87.634448,Florence,AL,341 Cox Creek Pkwy,35630
ff6Er4tHSW81D3u8jdKaNg,Chick-fil-A,1.0,1,https://www.yelp.com/biz/chick-fil-a-florence-12?adjust_creative=7QcreiNcfG2XG4IiEgZjvw&utm_campaign=yelp_api_v3&utm_medium=api_v3_business_search&utm_source=7QcreiNcfG2XG4IiEgZjvw,https://s3-media1.fl.yelpcdn.com/bphoto/Yn_ucwoUGkAIeJaAeGwq5Q/o.jpg,34.8061343,-87.6792456,Florence,AL,1 Harrison Plz,35632
k-fNgsjeqUus4wsP6dYK6g,Sonic Drive-In,3.0,5,https://www.yelp.com/biz/sonic-drive-in-florence-8?adjust_creative=7QcreiNcfG2XG4IiEgZjvw&utm_campaign=yelp_api_v3&utm_medium=api_v3_business_search&utm_source=7QcreiNcfG2XG4IiEgZjvw,https://s3-media4.fl.yelpcdn.com/bphoto/Cyt1o25qf2pqE9VwK5mhHA/o.jpg,34.8313,-87.62459,Florence,AL,2841 Florence Blvd,35630
l5XOvMvf05Q1mnRvjP1WQA,Arby's,3.5,4,https://www.yelp.com/biz/arbys-florence?adjust_creative=7QcreiNcfG2XG4IiEgZjvw&utm_campaign=yelp_api_v3&utm_medium=api_v3_business_search&utm_source=7QcreiNcfG2XG4IiEgZjvw,https://s3-media1.fl.yelpcdn.com/bphoto/A5BxVbAKom7bpUotqvGAVg/o.jpg,34.8402900695801,-87.6358871459961,Florence,AL,368 Cox Creek Pkwy,35630
PHCgj3Yu7Y94jxrX2qCdwg,Zaxby's Chicken Fingers & Buffalo Wings,2.5,8,https://www.yelp.com/biz/zaxbys-chicken-fingers-and-buffalo-wings-florence-2?adjust_creative=7QcreiNcfG2XG4IiEgZjvw&utm_campaign=yelp_api_v3&utm_medium=api_v3_business_search&utm_source=7QcreiNcfG2XG4IiEgZjvw,https://s3-media2.fl.yelpcdn.com/bphoto/UUEPXh5ideeD8eRg2n1n_w/o.jpg,34.840146,-87.635059,Florence,AL,366 Cox Creek Pkwy,35630
ukORdwQ8AoiOI5xGdACuZA,KFC,3.5,3,https://www.yelp.com/biz/kfc-florence-4?adjust_creative=7QcreiNcfG2XG4IiEgZjvw&utm_campaign=yelp_api_v3&utm_medium=api_v3_business_search&utm_source=7QcreiNcfG2XG4IiEgZjvw,https://s3-media3.fl.yelpcdn.com/bphoto/g1sgdMfr9Qc0z4R0aqWcVA/o.jpg,34.8334001855926,-87.6298876386404,Florence,AL,241 Cox Creek Pkwy,35630
hjCubtI6g3fzOjsfHZYp5w,Five Guys Burgers and Fries,3.5,9,https://www.yelp.com/biz/five-guys-burgers-and-fries-florence-4?adjust_creative=7QcreiNcfG2XG4IiEgZjvw&utm_campaign=yelp_api_v3&utm_medium=api_v3_business_search&utm_source=7QcreiNcfG2XG4IiEgZjvw,https://s3-media2.fl.yelpcdn.com/bphoto/2ID3mWHmwNTWehfIKI_J5g/o.jpg,34.8318447,-87.6228674,Florence,AL,2881 Florence Blvd,35630
aQe9Rmb3TeCWXCtpJtfa4g,Burger King,2.5,3,https://www.yelp.com/biz/burger-king-florence-8?adjust_creative=7QcreiNcfG2XG4IiEgZjvw&utm_campaign=yelp_api_v3&utm_medium=api_v3_business_search&utm_source=7QcreiNcfG2XG4IiEgZjvw,https://s3-media3.fl.yelpcdn.com/bphoto/5_8gKkfKG8IRxBuHTADo4Q/o.jpg,34.8176315,-87.658915,Florence,AL,1244 Florence Blvd,35630
fN1u_tZL6cCEiIR_uq7vJA,Bojangles Famous Chicken N' Biscuits,3.0,8,https://www.yelp.com/biz/bojangles-famous-chicken-n-biscuits-florence-7?adjust_creative=7QcreiNcfG2XG4IiEgZjvw&utm_campaign=yelp_api_v3&utm_medium=api_v3_business_search&utm_source=7QcreiNcfG2XG4IiEgZjvw,https://s3-media2.fl.yelpcdn.com/bphoto/5I3LTEXAPB-vvFvdH051qg/o.jpg,34.82784,-87.62706,Florence,AL,109 Cox Creek Pkwy S,35630
0SDv3ULX7B6Pfj9lDLr7kQ,Burger King,5.0,1,https://www.yelp.com/biz/burger-king-florence-16?adjust_creative=7QcreiNcfG2XG4IiEgZjvw&utm_campaign=yelp_api_v3&utm_medium=api_v3_business_search&utm_source=7QcreiNcfG2XG4IiEgZjvw,https://s3-media3.fl.yelpcdn.com/bphoto/NPy9mtb96Vyh8uJJofhDfA/o.jpg,34.8342528423625,-87.6260795037424,Florence,AL,3100 Hough Rd,35630
v1VRhGPiw7AAgbXVKw4-FA,Captain D's,2.5,3,https://www.yelp.com/biz/captain-ds-florence-3?adjust_creative=7QcreiNcfG2XG4IiEgZjvw&utm_campaign=yelp_api_v3&utm_medium=api_v3_business_search&utm_source=7QcreiNcfG2XG4IiEgZjvw,https://s3-media2.fl.yelpcdn.com/bphoto/_uMvk9VKYqKzYs0YYreI0A/o.jpg,34.8308614129672,-87.6265212893486,Florence,AL,2725 Florence Blvd,35630
C0GIVzCKPk1PCSabNUvTGA,Krystal,1.5,6,https://www.yelp.com/biz/krystal-florence-3?adjust_creative=7QcreiNcfG2XG4IiEgZjvw&utm_campaign=yelp_api_v3&utm_medium=api_v3_business_search&utm_source=7QcreiNcfG2XG4IiEgZjvw,https://s3-media4.fl.yelpcdn.com/bphoto/cxHX8tsZwX7aig_FjJ-T0w/o.jpg,34.8179567871336,-87.6609364897149,Florence,AL,1201 Florence Blvd,35630
UBUaeKJp3Y10ksbXXF166Q,McDonald's,2.5,3,https://www.yelp.com/biz/mcdonalds-florence-25?adjust_creative=7QcreiNcfG2XG4IiEgZjvw&utm_campaign=yelp_api_v3&utm_medium=api_v3_business_search&utm_source=7QcreiNcfG2XG4IiEgZjvw,https://s3-media2.fl.yelpcdn.com/bphoto/0dI9qHssgUNhuJTHu8yzng/o.jpg,34.83746,-87.63131,Florence,AL,306 Cox Creek Pkwy,35630
X--xeClpIgxvVSzCgS7k1A,Wendy's,3.5,3,https://www.yelp.com/biz/wendys-florence-11?adjust_creative=7QcreiNcfG2XG4IiEgZjvw&utm_campaign=yelp_api_v3&utm_medium=api_v3_business_search&utm_source=7QcreiNcfG2XG4IiEgZjvw,https://s3-media2.fl.yelpcdn.com/bphoto/NaZBtq9oQDgtGEt-haHj3Q/o.jpg,34.8408718489902,-87.6369960191832,Florence,AL,370 B Cox Creek Parkway,35630
rkQE2Mqt9iqsBAJOS54nNQ,Panda Express,2.0,9,https://www.yelp.com/biz/panda-express-florence-4?adjust_creative=7QcreiNcfG2XG4IiEgZjvw&utm_campaign=yelp_api_v3&utm_medium=api_v3_business_search&utm_source=7QcreiNcfG2XG4IiEgZjvw,https://s3-media2.fl.yelpcdn.com/bphoto/jY4PIl7UBm0PR3pDDkrTSA/o.jpg,34.83141,-87.62404,Florence,AL,2851 Florence Blvd,35630
4aFHEWSrTtk-uZ8M7YTbkA,Arby's,2.5,2,https://www.yelp.com/biz/arbys-florence-8?adjust_creative=7QcreiNcfG2XG4IiEgZjvw&utm_campaign=yelp_api_v3&utm_medium=api_v3_business_search&utm_source=7QcreiNcfG2XG4IiEgZjvw,https://s3-media3.fl.yelpcdn.com/bphoto/xSYCia2oJs0fBMg0H-huQg/o.jpg,34.8222198,-87.6493225,Florence,AL,1610 Florence Blvd,35630
Y4OshTpdXqc4ykJQoogCFA,McDonald's,2.0,2,https://www.yelp.com/biz/mcdonalds-florence-24?adjust_creative=7QcreiNcfG2XG4IiEgZjvw&utm_campaign=yelp_api_v3&utm_medium=api_v3_business_search&utm_source=7QcreiNcfG2XG4IiEgZjvw,https://s3-media2.fl.yelpcdn.com/bphoto/d-d7B_APSBVqNVkPn7x3pA/o.jpg,34.8209034,-87.655251,Florence,AL,1505 Florence Blvd,35630
x6hk-nXYNEWodB9TaLE5_Q,McDonald's,1.5,5,https://www.yelp.com/biz/mcdonalds-florence-21?adjust_creative=7QcreiNcfG2XG4IiEgZjvw&utm_campaign=yelp_api_v3&utm_medium=api_v3_business_search&utm_source=7QcreiNcfG2XG4IiEgZjvw,https://s3-media3.fl.yelpcdn.com/bphoto/IcxUTmXO81LUWz-9o_OXpg/o.jpg,34.8487652011902,-87.6907203730163,Florence,AL,3183 Cloverdale Rd,35630
fi6e0zEarqRMHNtH-fuGfQ,McDonald's,1.5,3,https://www.yelp.com/biz/mcdonalds-sheffield?adjust_creative=7QcreiNcfG2XG4IiEgZjvw&utm_campaign=yelp_api_v3&utm_medium=api_v3_business_search&utm_source=7QcreiNcfG2XG4IiEgZjvw,https://s3-media2.fl.yelpcdn.com/bphoto/sSYwvRwWARYS2nNT1w_D3w/o.jpg,34.7741301983292,-87.669825553894,Sheffield,AL,4201 Jackson Hwy,35660
u1kgXj9E34HMeJ0YiJaaBA,Chick-fil-A,3.5,23,https://www.yelp.com/biz/chick-fil-a-fultondale?adjust_creative=7QcreiNcfG2XG4IiEgZjvw&utm_campaign=yelp_api_v3&utm_medium=api_v3_business_search&utm_source=7QcreiNcfG2XG4IiEgZjvw,https://s3-media1.fl.yelpcdn.com/bphoto/7c0bkpqFER_9pQa8IHEBlg/o.jpg,33.6076806,-86.806613,Fultondale,AL,215 Howell St,35068
peqCnxUlHCSrHTPWnBVqMQ,Chick-fil-A,3.5,14,https://www.yelp.com/biz/chick-fil-a-gardendale?adjust_creative=7QcreiNcfG2XG4IiEgZjvw&utm_campaign=yelp_api_v3&utm_medium=api_v3_business_search&utm_source=7QcreiNcfG2XG4IiEgZjvw,https://s3-media4.fl.yelpcdn.com/bphoto/GcQylCBJDCsQw8ulYiRQBQ/o.jpg,33.651342,-86.8156701,Gardendale,AL,385 Fieldstown Rd,35071
3vLHQQ0cR8_yA2t2QGGxVA,Chick-fil-A,2.0,31,https://www.yelp.com/biz/chick-fil-a-birmingham-8?adjust_creative=7QcreiNcfG2XG4IiEgZjvw&utm_campaign=yelp_api_v3&utm_medium=api_v3_business_search&utm_source=7QcreiNcfG2XG4IiEgZjvw,https://s3-media4.fl.yelpcdn.com/bphoto/TQz_KOoOyRYHeMctQfYStQ/o.jpg,33.5627779,-86.7511699,Birmingham,AL,5900 Messer Airport Hwy,35212
GZDT7M9FdwDoZkuSuNXK6w,McDonald's,2.5,14,https://www.yelp.com/biz/mcdonalds-fultondale-2?adjust_creative=7QcreiNcfG2XG4IiEgZjvw&utm_campaign=yelp_api_v3&utm_medium=api_v3_business_search&utm_source=7QcreiNcfG2XG4IiEgZjvw,https://s3-media3.fl.yelpcdn.com/bphoto/C6E75kL0dWq_c0nLV5nuXQ/o.jpg,33.6076656171876,-86.8053824492608,Fultondale,AL,239 Howell St,35068
9GsVuRkJHgKnZXTGDU_x9w,Whataburger,3.0,57,https://www.yelp.com/biz/whataburger-fultondale?adjust_creative=7QcreiNcfG2XG4IiEgZjvw&utm_campaign=yelp_api_v3&utm_medium=api_v3_business_search&utm_source=7QcreiNcfG2XG4IiEgZjvw,https://s3-media2.fl.yelpcdn.com/bphoto/1JqTLvf0qIWVT25cXgGrWw/o.jpg,33.6091042176281,-86.7999885269318,Fultondale,AL,1601 Main St,35068
5Fn7CpVS8X0LGjws8rO7xA,Firehouse Subs,4.0,10,https://www.yelp.com/biz/firehouse-subs-fultondale?adjust_creative=7QcreiNcfG2XG4IiEgZjvw&utm_campaign=yelp_api_v3&utm_medium=api_v3_business_search&utm_source=7QcreiNcfG2XG4IiEgZjvw,https://s3-media1.fl.yelpcdn.com/bphoto/2EZO1H4IWZebrra0ZQ9TCA/o.jpg,33.6052988686473,-86.8059437702525,Fultondale,AL,3477 Lowery Pkwy,35068
0EK5w0wEIxi5EVtO7MHWeg,Five Guys,3.0,12,https://www.yelp.com/biz/five-guys-fultondale?adjust_creative=7QcreiNcfG2XG4IiEgZjvw&utm_campaign=yelp_api_v3&utm_medium=api_v3_business_search&utm_source=7QcreiNcfG2XG4IiEgZjvw,https://s3-media1.fl.yelpcdn.com/bphoto/8YEl07u_A_etFU3qX8NxgA/o.jpg,33.6043179,-86.80587,Fultondale,AL,3489 Lowery Pkwy,35068
VCI0AybPNpnYzCy2efhIzQ,Zaxby's Chicken Fingers & Buffalo Wings,2.5,10,https://www.yelp.com/biz/zaxbys-chicken-fingers-and-buffalo-wings-fultondale?adjust_creative=7QcreiNcfG2XG4IiEgZjvw&utm_campaign=yelp_api_v3&utm_medium=api_v3_business_search&utm_source=7QcreiNcfG2XG4IiEgZjvw,https://s3-media1.fl.yelpcdn.com/bphoto/yv50ELLbT4dW53cMzPH41g/o.jpg,33.6100425720215,-86.802001953125,Fultondale,AL,1725 Morris Ave,35068
iUVSv99sAv4ahhPOyIcNIw,Hardee's,2.5,4,https://www.yelp.com/biz/hardees-fultondale?adjust_creative=7QcreiNcfG2XG4IiEgZjvw&utm_campaign=yelp_api_v3&utm_medium=api_v3_business_search&utm_source=7QcreiNcfG2XG4IiEgZjvw,https://s3-media1.fl.yelpcdn.com/bphoto/BW-EnJRGL27qDxZ9Gd_Q7Q/o.jpg,33.6095962524414,-86.7973937988281,Fultondale,AL,1616 Decatur Hwy,35068
lDwP46fC4bgtJ7LHhnQ27A,Arby's,2.5,6,https://www.yelp.com/biz/arbys-fultondale?adjust_creative=7QcreiNcfG2XG4IiEgZjvw&utm_campaign=yelp_api_v3&utm_medium=api_v3_business_search&utm_source=7QcreiNcfG2XG4IiEgZjvw,https://s3-media3.fl.yelpcdn.com/bphoto/KGLOJlR0OxEk3TAY-lBZ7g/o.jpg,33.6077461242676,-86.8058471679688,Fultondale,AL,227 Howell St,35068
0T2oRLK5I8yCnoZZxe4PHA,Taco Bell,1.5,9,https://www.yelp.com/biz/taco-bell-fultondale-4?adjust_creative=7QcreiNcfG2XG4IiEgZjvw&utm_campaign=yelp_api_v3&utm_medium=api_v3_business_search&utm_source=7QcreiNcfG2XG4IiEgZjvw,https://s3-media2.fl.yelpcdn.com/bphoto/zp0MpJkPfUcm3ioxrMMuXQ/o.jpg,33.60918,-86.80259,Fultondale,AL,1611 Morris Avenue,35068
CBdNhc4kr4APRqK9fAcTDA,Burger King,1.5,9,https://www.yelp.com/biz/burger-king-fultondale?adjust_creative=7QcreiNcfG2XG4IiEgZjvw&utm_campaign=yelp_api_v3&utm_medium=api_v3_business_search&utm_source=7QcreiNcfG2XG4IiEgZjvw,https://s3-media3.fl.yelpcdn.com/bphoto/tSQfOR0HM6-gkl84_9NLsA/o.jpg,33.6095352172852,-86.8049926757812,Fultondale,AL,1701 Fulton Rd,35068
CzDMTh-gIpIvTi3JBaJGjw,Kathy G & Co,2.5,3,https://www.yelp.com/biz/kathy-g-and-co-birmingham?adjust_creative=7QcreiNcfG2XG4IiEgZjvw&utm_campaign=yelp_api_v3&utm_medium=api_v3_business_search&utm_source=7QcreiNcfG2XG4IiEgZjvw,https://s3-media2.fl.yelpcdn.com/bphoto/0kvU63pH1FLks3GL7umGxA/o.jpg,33.45946,-86.8434,Birmingham,AL,11 W Park Cir,35211
_VFh0GXw0nwj8GNTIvLiCA,Eugene's Hot Chicken,4.5,271,https://www.yelp.com/biz/eugenes-hot-chicken-birmingham-3?adjust_creative=7QcreiNcfG2XG4IiEgZjvw&utm_campaign=yelp_api_v3&utm_medium=api_v3_business_search&utm_source=7QcreiNcfG2XG4IiEgZjvw,https://s3-media1.fl.yelpcdn.com/bphoto/ZmFmIj1tvazZpq8AYBqbWQ/o.jpg,33.524938,-86.807596,Birmingham,AL,2268 9th Ave N,35203
3kh3Rn9J0pFvq2VOyj9EVA,Post Office Pies,3.5,8,https://www.yelp.com/biz/post-office-pies-birmingham-2?adjust_creative=7QcreiNcfG2XG4IiEgZjvw&utm_campaign=yelp_api_v3&utm_medium=api_v3_business_search&utm_source=7QcreiNcfG2XG4IiEgZjvw,https://s3-media1.fl.yelpcdn.com/bphoto/cSFHZtPkQW0kJe3HXN4y6w/o.jpg,33.5246353149414,-86.7738800048828,Birmingham,AL,209 41st St S,35222
kFPb45VXvda41J_0Uzf7bg,Crestline Catering Company,5.0,1,https://www.yelp.com/biz/crestline-catering-company-birmingham?adjust_creative=7QcreiNcfG2XG4IiEgZjvw&utm_campaign=yelp_api_v3&utm_medium=api_v3_business_search&utm_source=7QcreiNcfG2XG4IiEgZjvw,https://s3-media2.fl.yelpcdn.com/bphoto/XW_7JTdWEa1QABmg7tRA8Q/o.jpg,33.4339088,-86.8118105,Birmingham,AL,2120 Columbiana Rd,35216
PFA-MZNjB3Buar0YDFcqeA,Yellow Bicycle Catering Company,4.0,10,https://www.yelp.com/biz/yellow-bicycle-catering-company-birmingham-2?adjust_creative=7QcreiNcfG2XG4IiEgZjvw&utm_campaign=yelp_api_v3&utm_medium=api_v3_business_search&utm_source=7QcreiNcfG2XG4IiEgZjvw,https://s3-media2.fl.yelpcdn.com/bphoto/BUV4AUl_jPShZe2kYv9OnA/o.jpg,33.46535,-86.82662,Birmingham,AL,195 Vulcan Rd,35209
6GSqAn9ESEvfU8Psxzhuvg,Majestic Catering Service,5.0,1,https://www.yelp.com/biz/majestic-catering-service-birmingham?adjust_creative=7QcreiNcfG2XG4IiEgZjvw&utm_campaign=yelp_api_v3&utm_medium=api_v3_business_search&utm_source=7QcreiNcfG2XG4IiEgZjvw,https://s3-media2.fl.yelpcdn.com/bphoto/z9ih0b3MbKzZ9jSP5yCgbA/o.jpg,33.3465977,-86.9330783,Birmingham,AL,2420 Morgan Rd,35022
_3qcCzo6BqUZFeJOqAjAXA,Catered To You Events,5.0,1,https://www.yelp.com/biz/catered-to-you-events-birmingham?adjust_creative=7QcreiNcfG2XG4IiEgZjvw&utm_campaign=yelp_api_v3&utm_medium=api_v3_business_search&utm_source=7QcreiNcfG2XG4IiEgZjvw,https://s3-media2.fl.yelpcdn.com/bphoto/St5c4-2bacRKeyNyUshLrw/o.jpg,33.514714,-86.797411,Birmingham,AL,2443 1st Ave S,35210
7Z2VTSIdXu96rwPOFbdHjg,Queenie J's Soul Food & Eats,1.0,1,https://www.yelp.com/biz/queenie-js-soul-food-and-eats-birmingham?adjust_creative=7QcreiNcfG2XG4IiEgZjvw&utm_campaign=yelp_api_v3&utm_medium=api_v3_business_search&utm_source=7QcreiNcfG2XG4IiEgZjvw,https://s3-media3.fl.yelpcdn.com/bphoto/MdnDluywD0Jiy6X33-0TaQ/o.jpg,33.5868221233629,-86.7718018591404,Birmingham,AL,,35217
KYYiQK1N4eRdgHQZsHMJBA,Chick-fil-A,4.0,12,https://www.yelp.com/biz/chick-fil-a-hoover-6?adjust_creative=7QcreiNcfG2XG4IiEgZjvw&utm_campaign=yelp_api_v3&utm_medium=api_v3_business_search&utm_source=7QcreiNcfG2XG4IiEgZjvw,https://s3-media1.fl.yelpcdn.com/bphoto/ZxJW1iqYkDjvz7MtoKxjsg/o.jpg,33.3795836,-86.8088487,Hoover,AL,2000 Riverchase Galleria,35244
JCgg-t2keRGqEy7oz0d-Eg,Chick-fil-A,4.0,33,https://www.yelp.com/biz/chick-fil-a-hoover-2?adjust_creative=7QcreiNcfG2XG4IiEgZjvw&utm_campaign=yelp_api_v3&utm_medium=api_v3_business_search&utm_source=7QcreiNcfG2XG4IiEgZjvw,https://s3-media3.fl.yelpcdn.com/bphoto/CWdjbo1zsQ2dz7iw_5T-lA/o.jpg,33.371688,-86.812792,Hoover,AL,3020 John Hawkins Pkwy,35244
q_Kr7WMYQte25PijgHkqOg,Chick-fil-A,3.5,34,https://www.yelp.com/biz/chick-fil-a-hoover-7?adjust_creative=7QcreiNcfG2XG4IiEgZjvw&utm_campaign=yelp_api_v3&utm_medium=api_v3_business_search&utm_source=7QcreiNcfG2XG4IiEgZjvw,https://s3-media1.fl.yelpcdn.com/bphoto/TpB6xuT9QBbo3sZZkKYDDw/o.jpg,33.3990767,-86.8054123,Hoover,AL,1609 Montgomery Hwy,35216
HdNx8lA63c_Frl4CIjpgVQ,Chick-fil-A,4.0,30,https://www.yelp.com/biz/chick-fil-a-hoover-4?adjust_creative=7QcreiNcfG2XG4IiEgZjvw&utm_campaign=yelp_api_v3&utm_medium=api_v3_business_search&utm_source=7QcreiNcfG2XG4IiEgZjvw,https://s3-media1.fl.yelpcdn.com/bphoto/8X7aYu-i5KQFeYBiv6Egng/o.jpg,33.3583326,-86.854491,Hoover,AL,5658 Grove Blvd,35226
8EO7FUKYFC8BLWd17UNuiA,Chick-fil-A,3.5,13,https://www.yelp.com/biz/chick-fil-a-pelham?adjust_creative=7QcreiNcfG2XG4IiEgZjvw&utm_campaign=yelp_api_v3&utm_medium=api_v3_business_search&utm_source=7QcreiNcfG2XG4IiEgZjvw,https://s3-media1.fl.yelpcdn.com/bphoto/Hjf0G1goMvO6w2kS4WSmWw/o.jpg,33.3333164,-86.7856908,Pelham,AL,320 Cahaba Valley Rd,35124
MMQLZPtPcYm9NKlAfIYj9A,Chick-fil-A,3.0,52,https://www.yelp.com/biz/chick-fil-a-homewood?adjust_creative=7QcreiNcfG2XG4IiEgZjvw&utm_campaign=yelp_api_v3&utm_medium=api_v3_business_search&utm_source=7QcreiNcfG2XG4IiEgZjvw,https://s3-media1.fl.yelpcdn.com/bphoto/1RAZCY_Cqm60TlGU-KHyqA/o.jpg,33.446895,-86.82348186,Homewood,AL,211 Lakeshore Pkwy,35209
BODVG1cFXTfytMGq12inSQ,Chick-fil-A,2.5,39,https://www.yelp.com/biz/chick-fil-a-vestavia-hills-3?adjust_creative=7QcreiNcfG2XG4IiEgZjvw&utm_campaign=yelp_api_v3&utm_medium=api_v3_business_search&utm_source=7QcreiNcfG2XG4IiEgZjvw,https://s3-media1.fl.yelpcdn.com/bphoto/oXkYuop_wEMtq54p7iKuVw/o.jpg,33.4503304,-86.7876884,Vestavia Hills,AL,513 Montgomery Hwy,35216
aCLcJLOtEuimvcyNGlWvjg,Chick-fil-A,2.0,9,https://www.yelp.com/biz/chick-fil-a-birmingham-9?adjust_creative=7QcreiNcfG2XG4IiEgZjvw&utm_campaign=yelp_api_v3&utm_medium=api_v3_business_search&utm_source=7QcreiNcfG2XG4IiEgZjvw,https://s3-media3.fl.yelpcdn.com/bphoto/OQ0ESg2x1FPrPJuS1pP2Dw/o.jpg,33.4652043,-86.7930679,Birmingham,AL,800 Lakeshore Dr,35229
WDy57YiUsC74wsajFWelsw,Chick-fil-A,3.5,44,https://www.yelp.com/biz/chick-fil-a-birmingham-7?adjust_creative=7QcreiNcfG2XG4IiEgZjvw&utm_campaign=yelp_api_v3&utm_medium=api_v3_business_search&utm_source=7QcreiNcfG2XG4IiEgZjvw,https://s3-media3.fl.yelpcdn.com/bphoto/_BsijZsXG6DdzEuNOLBXBA/o.jpg,33.427832,-86.7081766,Birmingham,AL,4620 US 280 S,35242
EOrml39M2sb9G2SbieWnVg,Chick-fil-A,4.0,6,https://www.yelp.com/biz/chick-fil-a-birmingham-28?adjust_creative=7QcreiNcfG2XG4IiEgZjvw&utm_campaign=yelp_api_v3&utm_medium=api_v3_business_search&utm_source=7QcreiNcfG2XG4IiEgZjvw,https://s3-media4.fl.yelpcdn.com/bphoto/SWWCJAjWyn9HOYCtypB-Ww/o.jpg,33.4703222,-86.7707532,Birmingham,AL,746 Brookwood Vlg,35209
rM5RyQuJZXxm9nfkQ0HKfQ,Chick-fil-A,3.5,27,https://www.yelp.com/biz/chick-fil-a-birmingham-23?adjust_creative=7QcreiNcfG2XG4IiEgZjvw&utm_campaign=yelp_api_v3&utm_medium=api_v3_business_search&utm_source=7QcreiNcfG2XG4IiEgZjvw,https://s3-media2.fl.yelpcdn.com/bphoto/k8a_atJt1DGh3wG3a-8U6A/o.jpg,33.419683,-86.672523,Birmingham,AL,5375 Hwy 280,35242
a7cZpifZNw0TkL-sg57T_g,Culver's,4.0,62,https://www.yelp.com/biz/culvers-hoover-2?adjust_creative=7QcreiNcfG2XG4IiEgZjvw&utm_campaign=yelp_api_v3&utm_medium=api_v3_business_search&utm_source=7QcreiNcfG2XG4IiEgZjvw,https://s3-media3.fl.yelpcdn.com/bphoto/j86IxVNUzQzNoynx022Kfw/o.jpg,33.354617,-86.847735,Hoover,AL,1037 Amber Dr,35244
3j0XM0dAxZVPcHkykP4ZIg,Zaxby's Chicken Fingers & Buffalo Wings,3.5,18,https://www.yelp.com/biz/zaxbys-chicken-fingers-and-buffalo-wings-hoover?adjust_creative=7QcreiNcfG2XG4IiEgZjvw&utm_campaign=yelp_api_v3&utm_medium=api_v3_business_search&utm_source=7QcreiNcfG2XG4IiEgZjvw,https://s3-media3.fl.yelpcdn.com/bphoto/S8rCN2_0V5sdbTGiw_xx5A/o.jpg,33.363783197775,-86.8269959899552,Hoover,AL,2735 John Hawkins Pkwy,35244
g6ePio4fmd7CQzIRtvgoMA,Freddy's Frozen Custard & Steakburgers,3.5,63,https://www.yelp.com/biz/freddys-frozen-custard-and-steakburgers-hoover-2?adjust_creative=7QcreiNcfG2XG4IiEgZjvw&utm_campaign=yelp_api_v3&utm_medium=api_v3_business_search&utm_source=7QcreiNcfG2XG4IiEgZjvw,https://s3-media1.fl.yelpcdn.com/bphoto/FPXriEq6aGbrJNOSGQkLIA/o.jpg,33.35822,-86.85384,Hoover,AL,5634 Grove Blvd,35226
4yDfJpgIMlWegS6edqq12A,Steak n Shake,2.0,153,https://www.yelp.com/biz/steak-n-shake-hoover?adjust_creative=7QcreiNcfG2XG4IiEgZjvw&utm_campaign=yelp_api_v3&utm_medium=api_v3_business_search&utm_source=7QcreiNcfG2XG4IiEgZjvw,https://s3-media4.fl.yelpcdn.com/bphoto/kB3SzS4ymyH0OlMKFbBECA/o.jpg,33.3760337075077,-86.8022704124451,Hoover,AL,1817 Montgomery Hwy S,35244
Fi_LP5PieeLnLIQv3YTh7Q,Milo's Hamburgers,3.5,54,https://www.yelp.com/biz/milos-hamburgers-birmingham-7?adjust_creative=7QcreiNcfG2XG4IiEgZjvw&utm_campaign=yelp_api_v3&utm_medium=api_v3_business_search&utm_source=7QcreiNcfG2XG4IiEgZjvw,https://s3-media4.fl.yelpcdn.com/bphoto/hjfYQUK3Zh11t51dVzpWkA/o.jpg,33.4478913992643,-86.8256451934576,Birmingham,AL,208 State Farm Pkwy,35209
hbVT6LFQr6uwCRfwEHfc4Q,Zaxby's Chicken Fingers & Buffalo Wings,2.5,27,https://www.yelp.com/biz/zaxbys-chicken-fingers-and-buffalo-wings-vestavia-hills?adjust_creative=7QcreiNcfG2XG4IiEgZjvw&utm_campaign=yelp_api_v3&utm_medium=api_v3_business_search&utm_source=7QcreiNcfG2XG4IiEgZjvw,https://s3-media4.fl.yelpcdn.com/bphoto/EmNqUcHGqDk7rSVvi0qDow/o.jpg,33.428239,-86.791447,Vestavia Hills,AL,1304 Montgomery Hwy,35216
xUC4mMWZNaOmh4XCJhejeg,Panda Express,3.0,44,https://www.yelp.com/biz/panda-express-hoover?adjust_creative=7QcreiNcfG2XG4IiEgZjvw&utm_campaign=yelp_api_v3&utm_medium=api_v3_business_search&utm_source=7QcreiNcfG2XG4IiEgZjvw,https://s3-media1.fl.yelpcdn.com/bphoto/Y-zvvzGMAMOenDloHu0wrA/o.jpg,33.3764977239011,-86.8022724620201,Hoover,AL,3780 Lorna Rd,35244
8_Q84REYuhUVVIDI-qufag,McDonald's,1.5,31,https://www.yelp.com/biz/mcdonalds-hoover-2?adjust_creative=7QcreiNcfG2XG4IiEgZjvw&utm_campaign=yelp_api_v3&utm_medium=api_v3_business_search&utm_source=7QcreiNcfG2XG4IiEgZjvw,https://s3-media3.fl.yelpcdn.com/bphoto/RmiEYKZk0PKri7dLCbWTEQ/o.jpg,33.3568293,-86.855361,Hoover,AL,5170 Medford Dr,35226
Z9NxnCcEkthFD-gy9_Xtmw,Taco Bell,2.5,21,https://www.yelp.com/biz/taco-bell-homewood-2?adjust_creative=7QcreiNcfG2XG4IiEgZjvw&utm_campaign=yelp_api_v3&utm_medium=api_v3_business_search&utm_source=7QcreiNcfG2XG4IiEgZjvw,https://s3-media2.fl.yelpcdn.com/bphoto/3TgjRVqgby4Bpy0ZrCfKMw/o.jpg,33.444134,-86.826603,Homewood,AL,213 Lakeshore Pkwy,35209
5ke6Tj0aa9Uop3bXfpJUtA,Chick-fil-A,4.0,9,https://www.yelp.com/biz/chick-fil-a-huntsville?adjust_creative=7QcreiNcfG2XG4IiEgZjvw&utm_campaign=yelp_api_v3&utm_medium=api_v3_business_search&utm_source=7QcreiNcfG2XG4IiEgZjvw,https://s3-media1.fl.yelpcdn.com/bphoto/NttBtD4dsedu2N4WLsbEcw/o.jpg,34.706899,-86.58736,Huntsville,AL,2801 Memorial Pkwy SW,35801
3CCnjzIgef4ZnDj3IE7nkw,Chick-fil-A,4.0,30,https://www.yelp.com/biz/chick-fil-a-huntsville-5?adjust_creative=7QcreiNcfG2XG4IiEgZjvw&utm_campaign=yelp_api_v3&utm_medium=api_v3_business_search&utm_source=7QcreiNcfG2XG4IiEgZjvw,https://s3-media4.fl.yelpcdn.com/bphoto/I7n1VTwg5rRtd79SmwnuAg/o.jpg,34.7364734,-86.6524964,Huntsville,AL,4733 University Dr NW,35816
n_kBxARs5aTPswjHYvN6Eg,Chick-fil-A,2.5,15,https://www.yelp.com/biz/chick-fil-a-huntsville-2?adjust_creative=7QcreiNcfG2XG4IiEgZjvw&utm_campaign=yelp_api_v3&utm_medium=api_v3_business_search&utm_source=7QcreiNcfG2XG4IiEgZjvw,https://s3-media3.fl.yelpcdn.com/bphoto/RNm7w6sbcInTVvrAYuTfNw/o.jpg,34.69454597,-86.5676963,Huntsville,AL,4751 Whitesburg Dr SE,35802
lC8f8NxGd9vIE4-6W0F-hA,Chick-fil-A,4.0,16,https://www.yelp.com/biz/chick-fil-a-huntsville-4?adjust_creative=7QcreiNcfG2XG4IiEgZjvw&utm_campaign=yelp_api_v3&utm_medium=api_v3_business_search&utm_source=7QcreiNcfG2XG4IiEgZjvw,https://s3-media2.fl.yelpcdn.com/bphoto/W7Z7x88Yw7pghm5hfm4mGg/o.jpg,34.613611,-86.567982,Huntsville,AL,11820 Memorial Pkwy SW,35803
OIxLRDqTGt9bsWPC_ENVvw,Chick-fil-A,4.0,23,https://www.yelp.com/biz/chick-fil-a-madison-4?adjust_creative=7QcreiNcfG2XG4IiEgZjvw&utm_campaign=yelp_api_v3&utm_medium=api_v3_business_search&utm_source=7QcreiNcfG2XG4IiEgZjvw,https://s3-media1.fl.yelpcdn.com/bphoto/FJ6yinQkSGWlzxlO8fqvsg/o.jpg,34.752688,-86.744519,Madison,AL,7885 Highway 72 W,35758
rTs0GX3F91anRyiFp--8Zw,Zaxby's Chicken Fingers & Buffalo Wings,3.0,29,https://www.yelp.com/biz/zaxbys-chicken-fingers-and-buffalo-wings-huntsville-4?adjust_creative=7QcreiNcfG2XG4IiEgZjvw&utm_campaign=yelp_api_v3&utm_medium=api_v3_business_search&utm_source=7QcreiNcfG2XG4IiEgZjvw,https://s3-media4.fl.yelpcdn.com/bphoto/F8Axx_eiE4PnUmqfudGtuA/o.jpg,34.7427446163321,-86.674893204729,Huntsville,AL,6125 University Dr NW,35806
KZ3h0WogdzUJKZXV6jr8LA,Popeyes Louisiana Kitchen,1.5,18,https://www.yelp.com/biz/popeyes-louisiana-kitchen-huntsville-2?adjust_creative=7QcreiNcfG2XG4IiEgZjvw&utm_campaign=yelp_api_v3&utm_medium=api_v3_business_search&utm_source=7QcreiNcfG2XG4IiEgZjvw,https://s3-media2.fl.yelpcdn.com/bphoto/luSeVOE5HiG_M7zG3Qg8Rg/o.jpg,34.75507,-86.710963,Huntsville,AL,7064 US 72,35806
cX88rnRuqRQC-iNdbou1pg,Arby's,4.0,5,https://www.yelp.com/biz/arbys-huntsville-6?adjust_creative=7QcreiNcfG2XG4IiEgZjvw&utm_campaign=yelp_api_v3&utm_medium=api_v3_business_search&utm_source=7QcreiNcfG2XG4IiEgZjvw,https://s3-media2.fl.yelpcdn.com/bphoto/7fZUgDYf4NZvnFJojttitQ/o.jpg,34.7741203308105,-86.5274963378906,Huntsville,AL,30 Shields Rd,35811
Hq7TDNy15rCOtv6PinuPuA,The Pretzel Twister,3.5,5,https://www.yelp.com/biz/the-pretzel-twister-huntsville?adjust_creative=7QcreiNcfG2XG4IiEgZjvw&utm_campaign=yelp_api_v3&utm_medium=api_v3_business_search&utm_source=7QcreiNcfG2XG4IiEgZjvw,https://s3-media1.fl.yelpcdn.com/bphoto/IQ2S9lyZLCMz0mza5NvqMw/o.jpg,34.7142031788826,-86.67276263237,Huntsville,AL,350 The Bridge St,35806
wRMyZjbeXXuoAbPzwFf_eQ,Jersey Mike's Subs,4.5,5,https://www.yelp.com/biz/jersey-mikes-subs-huntsville-3?adjust_creative=7QcreiNcfG2XG4IiEgZjvw&utm_campaign=yelp_api_v3&utm_medium=api_v3_business_search&utm_source=7QcreiNcfG2XG4IiEgZjvw,https://s3-media4.fl.yelpcdn.com/bphoto/xnvY7-2WSlPdpsBkI0uStQ/o.jpg,34.693636,-86.570143,Huntsville,AL,4800 Whitesburg Dr,35802
4fBkPVe3n5G7fjl3Bt8kWw,Krystal,3.0,7,https://www.yelp.com/biz/krystal-huntsville?adjust_creative=7QcreiNcfG2XG4IiEgZjvw&utm_campaign=yelp_api_v3&utm_medium=api_v3_business_search&utm_source=7QcreiNcfG2XG4IiEgZjvw,https://s3-media3.fl.yelpcdn.com/bphoto/XY2FTvVJIJMbSpt0glImMA/o.jpg,34.7129989433259,-86.5753240138292,Huntsville,AL,2346 Whitesburg Dr,35801
0VRBRyJenwcEuDey-vpKRA,Dairy Queen Grill & Chill,5.0,5,https://www.yelp.com/biz/dairy-queen-grill-and-chill-huntsville-3?adjust_creative=7QcreiNcfG2XG4IiEgZjvw&utm_campaign=yelp_api_v3&utm_medium=api_v3_business_search&utm_source=7QcreiNcfG2XG4IiEgZjvw,https://s3-media3.fl.yelpcdn.com/bphoto/xCSC9DeiMNA0DZRA83R9fg/o.jpg,34.748834,-86.580179,Huntsville,AL,214 Oakwood Ave NE,35811
taSU-QR1GLu56EtTg1ARZg,McDonald's,2.5,9,https://www.yelp.com/biz/mcdonalds-huntsville-2?adjust_creative=7QcreiNcfG2XG4IiEgZjvw&utm_campaign=yelp_api_v3&utm_medium=api_v3_business_search&utm_source=7QcreiNcfG2XG4IiEgZjvw,https://s3-media3.fl.yelpcdn.com/bphoto/V35sgIh3Gbw8fNfY8xLGAQ/o.jpg,34.8174810039476,-86.4908542,Huntsville,AL,2234 Winchester Rd,35811
q9TKz12kzIm3vJl_q3IlKQ,Popeyes Louisiana Kitchen,3.5,5,https://www.yelp.com/biz/popeyes-louisiana-kitchen-huntsville-11?adjust_creative=7QcreiNcfG2XG4IiEgZjvw&utm_campaign=yelp_api_v3&utm_medium=api_v3_business_search&utm_source=7QcreiNcfG2XG4IiEgZjvw,https://s3-media4.fl.yelpcdn.com/bphoto/Pop6RPzO0_ptp7YgDaI4dw/o.jpg,34.768186,-86.5863480015747,Huntsville,AL,3234 N Memorial Pkwy,35810
T4yWhgaUHG-p82l_ub7OAg,Arby's,4.5,2,https://www.yelp.com/biz/arbys-huntsville-4?adjust_creative=7QcreiNcfG2XG4IiEgZjvw&utm_campaign=yelp_api_v3&utm_medium=api_v3_business_search&utm_source=7QcreiNcfG2XG4IiEgZjvw,https://s3-media4.fl.yelpcdn.com/bphoto/Wze0OBtytEKMBGyyraSepQ/o.jpg,34.7564353942871,-86.5944061279297,Huntsville,AL,2413 Memorial Pkwy NW,35810
-vVcFNpdaxL8HOeWIxC94Q,Bojangles,3.5,28,https://www.yelp.com/biz/bojangles-huntsville-8?adjust_creative=7QcreiNcfG2XG4IiEgZjvw&utm_campaign=yelp_api_v3&utm_medium=api_v3_business_search&utm_source=7QcreiNcfG2XG4IiEgZjvw,https://s3-media2.fl.yelpcdn.com/bphoto/pZELfqYCHVnxc7LjUKNslQ/o.jpg,34.73437,-86.63558,Huntsville,AL,4323 University Dr NW,35816
RA1sj2ykWSAdSk7j8BRy5g,Arby's,4.5,5,https://www.yelp.com/biz/arbys-huntsville-5?adjust_creative=7QcreiNcfG2XG4IiEgZjvw&utm_campaign=yelp_api_v3&utm_medium=api_v3_business_search&utm_source=7QcreiNcfG2XG4IiEgZjvw,https://s3-media2.fl.yelpcdn.com/bphoto/gRG7fUUfAkyj0izmjR3X5A/o.jpg,34.6366767883301,-86.567497253418,Huntsville,AL,11212 Memorial Pkwy SW,35803
gI8C0wmKjcYBDHXAmNZJBw,Zaxby's Chicken Fingers & Buffalo Wings,3.0,9,https://www.yelp.com/biz/zaxbys-chicken-fingers-and-buffalo-wings-huntsville-2?adjust_creative=7QcreiNcfG2XG4IiEgZjvw&utm_campaign=yelp_api_v3&utm_medium=api_v3_business_search&utm_source=7QcreiNcfG2XG4IiEgZjvw,https://s3-media3.fl.yelpcdn.com/bphoto/BBYqTxTQtlUO0bTsbMPfgg/o.jpg,34.6165733337402,-86.5680084228516,Huntsville,AL,11608 Memorial Pkwy SW,35803
CT0TPoa2rdaWM7ErpSktUg,McDonald's,1.0,5,https://www.yelp.com/biz/mcdonalds-huntsville-10?adjust_creative=7QcreiNcfG2XG4IiEgZjvw&utm_campaign=yelp_api_v3&utm_medium=api_v3_business_search&utm_source=7QcreiNcfG2XG4IiEgZjvw,https://s3-media2.fl.yelpcdn.com/bphoto/vdhAaJlnMtAtMZApOCtwuw/o.jpg,34.7735114,-86.5269231,Huntsville,AL,1795 US Hwy 72 E,35811
gpRuo3pDeio8MjLKGkCgfw,Jimmy John's,4.0,10,https://www.yelp.com/biz/jimmy-johns-huntsville-2?adjust_creative=7QcreiNcfG2XG4IiEgZjvw&utm_campaign=yelp_api_v3&utm_medium=api_v3_business_search&utm_source=7QcreiNcfG2XG4IiEgZjvw,https://s3-media1.fl.yelpcdn.com/bphoto/YAwquuap8MqUITfU7e8pBw/o.jpg,34.6899272,-86.5769784,Huntsville,AL,975 Airport Rd SW,35802
mdwZdSrrPUI_d1ASyicsIQ,Chick-fil-A,3.0,2,https://www.yelp.com/biz/chick-fil-a-oxford?adjust_creative=7QcreiNcfG2XG4IiEgZjvw&utm_campaign=yelp_api_v3&utm_medium=api_v3_business_search&utm_source=7QcreiNcfG2XG4IiEgZjvw,https://s3-media3.fl.yelpcdn.com/bphoto/RPVNhCmDWKOkVA6S2q7Pxw/o.jpg,33.613067,-85.824559,Oxford,AL,700 Quintard Dr,36203
K3bA-YnGbgrFDTKDBT8hpQ,Chick-fil-A,3.5,14,https://www.yelp.com/biz/chick-fil-a-oxford-2?adjust_creative=7QcreiNcfG2XG4IiEgZjvw&utm_campaign=yelp_api_v3&utm_medium=api_v3_business_search&utm_source=7QcreiNcfG2XG4IiEgZjvw,https://s3-media4.fl.yelpcdn.com/bphoto/4Rm-mK6Fm0jOq8_hWNDI0Q/o.jpg,33.601388,-85.8336867,Oxford,AL,1205 Al Hwy 21 S,36203
SuEtKy5QLsQCqChzrlUhgw,Cook Out,4.5,8,https://www.yelp.com/biz/cook-out-jacksonville-3?adjust_creative=7QcreiNcfG2XG4IiEgZjvw&utm_campaign=yelp_api_v3&utm_medium=api_v3_business_search&utm_source=7QcreiNcfG2XG4IiEgZjvw,https://s3-media3.fl.yelpcdn.com/bphoto/lmTA-Nsngm7PaiH8kxd9bg/o.jpg,33.8114556613125,-85.7607650441643,Jacksonville,AL,402 S Pelham,36235
OFWBxZCtvibc0X2GeaCnZQ,Jimmy John's,4.5,2,https://www.yelp.com/biz/jimmy-johns-jacksonville-23?adjust_creative=7QcreiNcfG2XG4IiEgZjvw&utm_campaign=yelp_api_v3&utm_medium=api_v3_business_search&utm_source=7QcreiNcfG2XG4IiEgZjvw,https://s3-media2.fl.yelpcdn.com/bphoto/MLz-U7Ml_R6WBCM-h7yA2g/o.jpg,33.819062,-85.761034,Jacksonville,AL,505 Pelham Rd N,36265
NSA0uTVyABKBMuimGiv_3g,Dairy Queen Grill & Chill,2.5,4,https://www.yelp.com/biz/dairy-queen-grill-and-chill-jacksonville-4?adjust_creative=7QcreiNcfG2XG4IiEgZjvw&utm_campaign=yelp_api_v3&utm_medium=api_v3_business_search&utm_source=7QcreiNcfG2XG4IiEgZjvw,https://s3-media2.fl.yelpcdn.com/bphoto/Kl2f0FmbGwqsZMqUdsoo_Q/o.jpg,33.817364,-85.760933,Jacksonville,AL,411 Sr 21,36265
oVWm3Xj7RP6hS-1kJ9vFwQ,Taco Bell,1.5,6,https://www.yelp.com/biz/taco-bell-jacksonville-20?adjust_creative=7QcreiNcfG2XG4IiEgZjvw&utm_campaign=yelp_api_v3&utm_medium=api_v3_business_search&utm_source=7QcreiNcfG2XG4IiEgZjvw,https://s3-media2.fl.yelpcdn.com/bphoto/hifI_PE886DeIMRvn3jHmQ/o.jpg,33.7856,-85.77,Jacksonville,AL,1611 Pelham Road S.,36265
PeFX3RT_SJa1Xn6EsXIphQ,Bojangles,3.5,4,https://www.yelp.com/biz/bojangles-jacksonville-9?adjust_creative=7QcreiNcfG2XG4IiEgZjvw&utm_campaign=yelp_api_v3&utm_medium=api_v3_business_search&utm_source=7QcreiNcfG2XG4IiEgZjvw,https://s3-media1.fl.yelpcdn.com/bphoto/IyFuHceEAMTPZiFa8DC_9A/o.jpg,33.8004512664311,-85.7619981748709,Jacksonville,AL,101 Adelaide St S W,36265
0leGsFvenctMhqK7d1NZmQ,Jack's,3.5,6,https://www.yelp.com/biz/jacks-anniston-2?adjust_creative=7QcreiNcfG2XG4IiEgZjvw&utm_campaign=yelp_api_v3&utm_medium=api_v3_business_search&utm_source=7QcreiNcfG2XG4IiEgZjvw,https://s3-media1.fl.yelpcdn.com/bphoto/fkXOdUbGqcWU0dE_i2y-Hw/o.jpg,33.7247543334961,-85.8147735595703,Anniston,AL,5704 McClellan Blvd,36201
zsHHFDNGACnxJDR4jBcDWQ,Sonic Drive-In,1.5,3,https://www.yelp.com/biz/sonic-drive-in-jacksonville-19?adjust_creative=7QcreiNcfG2XG4IiEgZjvw&utm_campaign=yelp_api_v3&utm_medium=api_v3_business_search&utm_source=7QcreiNcfG2XG4IiEgZjvw,https://s3-media3.fl.yelpcdn.com/bphoto/0ijgW9KgbeiZ7eBqz63WIQ/o.jpg,33.8013717338376,-85.7607418298721,Jacksonville,AL,1120 Pelham Rd S,36265
yTFU1zgJM6BIrsdPvROX_g,Burger King,1.0,2,https://www.yelp.com/biz/burger-king-jacksonville-52?adjust_creative=7QcreiNcfG2XG4IiEgZjvw&utm_campaign=yelp_api_v3&utm_medium=api_v3_business_search&utm_source=7QcreiNcfG2XG4IiEgZjvw,https://s3-media3.fl.yelpcdn.com/bphoto/6eI2zjiarzFgumOxKb0m5Q/o.jpg,33.81769,-85.76176,Jacksonville,AL,410 Pelham Rd North,36265
22NqiRyAZQqWgOaC8-RePA,Wendy's,2.0,3,https://www.yelp.com/biz/wendys-jacksonville-39?adjust_creative=7QcreiNcfG2XG4IiEgZjvw&utm_campaign=yelp_api_v3&utm_medium=api_v3_business_search&utm_source=7QcreiNcfG2XG4IiEgZjvw,https://s3-media2.fl.yelpcdn.com/bphoto/fCxzDLq0fVILvJ1VPcmolg/o.jpg,33.8176254,-85.760866,Jacksonville,AL,419 N. Pelham Road,36265
i7zZVtWAlBhHVGY7-kBpOQ,Captain D's,2.5,3,https://www.yelp.com/biz/captain-ds-jacksonville?adjust_creative=7QcreiNcfG2XG4IiEgZjvw&utm_campaign=yelp_api_v3&utm_medium=api_v3_business_search&utm_source=7QcreiNcfG2XG4IiEgZjvw,https://s3-media3.fl.yelpcdn.com/bphoto/eSXV_JE6MDsv-SwTfFBFFg/o.jpg,33.8024000016711,-85.7618824430619,Jacksonville,AL,1021 Pelham Rd S,36265
QZtMXbm-caqxCGXHOvJ85g,Subway,3.0,1,https://www.yelp.com/biz/subway-jacksonville-48?adjust_creative=7QcreiNcfG2XG4IiEgZjvw&utm_campaign=yelp_api_v3&utm_medium=api_v3_business_search&utm_source=7QcreiNcfG2XG4IiEgZjvw,,33.8285369873047,-85.7569198608398,Jacksonville,AL,908 3rd Ave NE,36265
5xUD2O2yyw1gCHd_hC-v3A,McDonald's,2.0,7,https://www.yelp.com/biz/mcdonalds-jacksonville-46?adjust_creative=7QcreiNcfG2XG4IiEgZjvw&utm_campaign=yelp_api_v3&utm_medium=api_v3_business_search&utm_source=7QcreiNcfG2XG4IiEgZjvw,https://s3-media1.fl.yelpcdn.com/bphoto/SxdxKUpY-_28XFb2Gumdug/o.jpg,33.8162433711402,-85.7618354167789,Jacksonville,AL,312 Pelham Rd N,36265
kppxb0i7emQMOv_TUU-WAA,Jack's,2.0,5,https://www.yelp.com/biz/jacks-jacksonville?adjust_creative=7QcreiNcfG2XG4IiEgZjvw&utm_campaign=yelp_api_v3&utm_medium=api_v3_business_search&utm_source=7QcreiNcfG2XG4IiEgZjvw,,33.792796,-85.7610773,Jacksonville,AL,602 Pelham Rd S,36265
z6MRsjQh0mxpZAwucZVp5A,Sonic Drive-In,3.0,1,https://www.yelp.com/biz/sonic-drive-in-anniston-2?adjust_creative=7QcreiNcfG2XG4IiEgZjvw&utm_campaign=yelp_api_v3&utm_medium=api_v3_business_search&utm_source=7QcreiNcfG2XG4IiEgZjvw,https://s3-media4.fl.yelpcdn.com/bphoto/0erGgMLxYyOMD-V3Q-TbXA/o.jpg,33.725379690662,-85.8154930957471,Anniston,AL,302 Glade Rd E,36204
IkVBj9KaefAmRAv40_lBHA,Arby's,1.0,2,https://www.yelp.com/biz/arbys-anniston-2?adjust_creative=7QcreiNcfG2XG4IiEgZjvw&utm_campaign=yelp_api_v3&utm_medium=api_v3_business_search&utm_source=7QcreiNcfG2XG4IiEgZjvw,https://s3-media1.fl.yelpcdn.com/bphoto/xqjrSEg2XijNMa8oj_5mSg/o.jpg,33.7229652404785,-85.8163223266602,Anniston,AL,5626 Mcclellan Blvd,36206
e4NuXCPYgHgDYqe1SisIBg,Chick-fil-A,4.0,25,https://www.yelp.com/biz/chick-fil-a-bessemer?adjust_creative=7QcreiNcfG2XG4IiEgZjvw&utm_campaign=yelp_api_v3&utm_medium=api_v3_business_search&utm_source=7QcreiNcfG2XG4IiEgZjvw,https://s3-media4.fl.yelpcdn.com/bphoto/OlQ-R9u2vFKyjwtizofqYg/o.jpg,33.333315,-86.9940477,Bessemer,AL,6000 Harris Ln,35022
n3Z8N0LciionTPS6HksD_Q,Popeyes Louisiana Kitchen,4.0,9,https://www.yelp.com/biz/popeyes-louisiana-kitchen-mccalla-3?adjust_creative=7QcreiNcfG2XG4IiEgZjvw&utm_campaign=yelp_api_v3&utm_medium=api_v3_business_search&utm_source=7QcreiNcfG2XG4IiEgZjvw,https://s3-media1.fl.yelpcdn.com/bphoto/Y4ReE7Mjj0SQGMyj8O7fJA/o.jpg,33.281116,-87.089851,Mc Calla,AL,22526 Highway 216,35111
Zj6NFXC42jhzIDsgw46VBQ,Popeyes Louisiana Kitchen,2.0,9,https://www.yelp.com/biz/popeyes-louisiana-kitchen-bessemer?adjust_creative=7QcreiNcfG2XG4IiEgZjvw&utm_campaign=yelp_api_v3&utm_medium=api_v3_business_search&utm_source=7QcreiNcfG2XG4IiEgZjvw,https://s3-media4.fl.yelpcdn.com/bphoto/T25PywyEaDTMOqQi6GbjjA/o.jpg,33.396888,-86.969398,Bessemer,AL,932 9th Ave N,35020
XS9PwDXros9m2SIu4Ig-TQ,Burger King,2.0,5,https://www.yelp.com/biz/burger-king-bessemer-3?adjust_creative=7QcreiNcfG2XG4IiEgZjvw&utm_campaign=yelp_api_v3&utm_medium=api_v3_business_search&utm_source=7QcreiNcfG2XG4IiEgZjvw,https://s3-media4.fl.yelpcdn.com/bphoto/aqF5_nF-VUVXmHunQwLbMw/o.jpg,33.362114,-86.999405,Bessemer,AL,740 Academy Dr,35022
37eSGR7RODsyPf5I7waK5w,Firehouse Subs,4.5,16,https://www.yelp.com/biz/firehouse-subs-bessemer?adjust_creative=7QcreiNcfG2XG4IiEgZjvw&utm_campaign=yelp_api_v3&utm_medium=api_v3_business_search&utm_source=7QcreiNcfG2XG4IiEgZjvw,https://s3-media1.fl.yelpcdn.com/bphoto/84hofoDy8RqvfOKPf4eFSQ/o.jpg,33.333222,-86.988638,Bessemer,AL,4867 Promenade Pkwy,35022
fj6z4DDeW7xMZETANQJ0hQ,McDonald's,1.5,15,https://www.yelp.com/biz/mcdonalds-mccalla?adjust_creative=7QcreiNcfG2XG4IiEgZjvw&utm_campaign=yelp_api_v3&utm_medium=api_v3_business_search&utm_source=7QcreiNcfG2XG4IiEgZjvw,https://s3-media1.fl.yelpcdn.com/bphoto/7ChqqR7XH2VeKzStWEMc9w/o.jpg,33.278784,-87.0987584,McCalla,AL,22183 Highway 216,35111
iI5-um9gq4GxDqfZ7dQVKg,Bojangles,2.5,5,https://www.yelp.com/biz/bojangles-mccalla?adjust_creative=7QcreiNcfG2XG4IiEgZjvw&utm_campaign=yelp_api_v3&utm_medium=api_v3_business_search&utm_source=7QcreiNcfG2XG4IiEgZjvw,https://s3-media3.fl.yelpcdn.com/bphoto/BG10cjgj-bIvCtn0c0JbxA/o.jpg,33.329245,-87.000608,McCalla,AL,4780 Eastern Valley Rd,35111
